{
  "locations": [
    {
      "type": "airport",
      "airportCode": "LSGE",
      "latitude": 46.75528176320468,
      "longitude": 7.07589548989545
    },
    {
      "type": "airport",
      "airportCode": "LSZQ",
      "latitude": 47.39259531224388,
      "longitude": 7.02946948453475
    },
    {
      "type": "airport",
      "airportCode": "LSZE",
      "latitude": 47.01493797526087,
      "longitude": 9.48182820713569
    },
    {
      "type": "airport",
      "airportCode": "LSPA",
      "latitude": 47.5741666182876,
      "longitude": 9.04750004410744
    },
    {
      "type": "airport",
      "airportCode": "LSGY",
      "latitude": 46.76195483499129,
      "longitude": 6.61324327394872
    },
    {
      "type": "airport",
      "airportCode": "LSPH",
      "latitude": 47.51487085804445,
      "longitude": 8.77189831009724
    },
    {
      "type": "airport",
      "airportCode": "LSZI",
      "latitude": 47.50877683955272,
      "longitude": 7.95046396968315
    },
    {
      "type": "airport",
      "airportCode": "LSZV",
      "latitude": 47.50895882427176,
      "longitude": 9.26269879151226
    },
    {
      "type": "airport",
      "airportCode": "LSZF",
      "latitude": 47.44368072681748,
      "longitude": 8.2340151031751
    },
    {
      "type": "airport",
      "airportCode": "LSPF",
      "latitude": 47.6905557140708,
      "longitude": 8.52694451808929
    },
    {
      "type": "airport",
      "airportCode": "LSZN",
      "latitude": 47.2388889999937,
      "longitude": 8.51555599999907
    },
    {
      "type": "airport",
      "airportCode": "LSZK",
      "latitude": 47.37609620959804,
      "longitude": 8.75830131465731
    },
    {
      "type": "airport",
      "airportCode": "LSGT",
      "latitude": 46.59502161714024,
      "longitude": 7.09416766426629
    },
    {
      "type": "airport",
      "airportCode": "LSGC",
      "latitude": 47.08406264775371,
      "longitude": 6.79333757058208
    },
    {
      "type": "airport",
      "airportCode": "LSZT",
      "latitude": 47.5246825928396,
      "longitude": 9.0028183165746
    },
    {
      "type": "airport",
      "airportCode": "LSPG",
      "latitude": 46.90708424294723,
      "longitude": 8.25417368528028
    },
    {
      "type": "airport",
      "airportCode": "LSPM",
      "latitude": 46.51310375008927,
      "longitude": 8.69062760902543
    }
  ]
}