<?xml version="1.0"?>
<FSData version="9.0">
	<!--SceneryObject name: Gen_Buildings_06-->
	<SceneryObject lat="47.50461618423724" lon="9.01905385509636" alt="0.00000000000000" pitch="0.000000" bank="0.000000" heading="147.000001" imageComplexity="VERY_SPARSE" altitudeIsAgl="TRUE" snapToGround="TRUE" snapToNormal="FALSE">
		<LibraryObject name="{11F6C32D-5F29-4CDE-B155-7EF0AE394078}" scale="1.000000"/>
	</SceneryObject>
	<!--SceneryObject name: Water_Tank_Type01_Tall-->
	<SceneryObject lat="47.50652218616753" lon="9.02131508906346" alt="0.00000000000000" pitch="0.000000" bank="0.000000" heading="170.000007" imageComplexity="VERY_SPARSE" altitudeIsAgl="TRUE" snapToGround="TRUE" snapToNormal="FALSE">
		<LibraryObject name="{952CEBEA-BBBA-48FD-8EE3-40E3F7C34FBA}" scale="1.000000"/>
	</SceneryObject>
	<!--SceneryObject name: Water_Tank_Type02_Mid-->
	<SceneryObject lat="47.50353881615606" lon="9.02055468838106" alt="0.00000000000000" pitch="0.000000" bank="0.000000" heading="170.000007" imageComplexity="VERY_SPARSE" altitudeIsAgl="TRUE" snapToGround="TRUE" snapToNormal="FALSE">
		<LibraryObject name="{A38DFDCD-E4E5-4F7F-8794-18624E5F647F}" scale="1.250000"/>
	</SceneryObject>
	<!--SceneryObject name: Water_Tank_Type02_Mid-->
	<SceneryObject lat="47.50361238112075" lon="9.02004377753506" alt="0.00000000000000" pitch="0.000014" bank="-0.000014" heading="170.000007" imageComplexity="VERY_SPARSE" altitudeIsAgl="TRUE" snapToGround="TRUE" snapToNormal="FALSE">
		<LibraryObject name="{A38DFDCD-E4E5-4F7F-8794-18624E5F647F}" scale="1.400000"/>
	</SceneryObject>
	<!--SceneryObject name: Water_Tank_Type02_Mid-->
	<SceneryObject lat="47.50375424530557" lon="9.02060405217446" alt="0.00000000000000" pitch="0.000000" bank="0.000000" heading="170.000007" imageComplexity="VERY_SPARSE" altitudeIsAgl="TRUE" snapToGround="TRUE" snapToNormal="FALSE">
		<LibraryObject name="{A38DFDCD-E4E5-4F7F-8794-18624E5F647F}" scale="1.250000"/>
	</SceneryObject>
	<!--SceneryObject name: Water_Tank_Type02_Mid-->
	<SceneryObject lat="47.50384117275705" lon="9.02009326007972" alt="0.00000000000000" pitch="0.000014" bank="-0.000014" heading="170.000007" imageComplexity="VERY_SPARSE" altitudeIsAgl="TRUE" snapToGround="TRUE" snapToNormal="FALSE">
		<LibraryObject name="{A38DFDCD-E4E5-4F7F-8794-18624E5F647F}" scale="1.400000"/>
	</SceneryObject>
	<!--SceneryObject name: Water_Tank_Type02_Mid-->
	<SceneryObject lat="47.50396892280699" lon="9.02065243868179" alt="0.00000000000000" pitch="0.000000" bank="0.000000" heading="170.000007" imageComplexity="VERY_SPARSE" altitudeIsAgl="TRUE" snapToGround="TRUE" snapToNormal="FALSE">
		<LibraryObject name="{A38DFDCD-E4E5-4F7F-8794-18624E5F647F}" scale="1.250000"/>
	</SceneryObject>
	<!--SceneryObject name: Water_Tank_Type02_Mid-->
	<SceneryObject lat="47.50406597381518" lon="9.02014366046312" alt="0.00000000000000" pitch="0.000014" bank="-0.000014" heading="170.000007" imageComplexity="VERY_SPARSE" altitudeIsAgl="TRUE" snapToGround="TRUE" snapToNormal="FALSE">
		<LibraryObject name="{A38DFDCD-E4E5-4F7F-8794-18624E5F647F}" scale="1.400000"/>
	</SceneryObject>
	<!--SceneryObject name: Water_Tank_Type02_Mid-->
	<SceneryObject lat="47.50417728101144" lon="9.02070649882933" alt="0.00000000000000" pitch="0.000000" bank="0.000000" heading="170.000007" imageComplexity="VERY_SPARSE" altitudeIsAgl="TRUE" snapToGround="TRUE" snapToNormal="FALSE">
		<LibraryObject name="{A38DFDCD-E4E5-4F7F-8794-18624E5F647F}" scale="1.250000"/>
	</SceneryObject>
	<!--SceneryObject name: Water_Tank_Type02_Mid-->
	<SceneryObject lat="47.50429126267502" lon="9.02020382893526" alt="0.00000000000000" pitch="0.000014" bank="-0.000014" heading="170.000007" imageComplexity="VERY_SPARSE" altitudeIsAgl="TRUE" snapToGround="TRUE" snapToNormal="FALSE">
		<LibraryObject name="{A38DFDCD-E4E5-4F7F-8794-18624E5F647F}" scale="1.400000"/>
	</SceneryObject>
	<!--SceneryObject name: Water_Tank_Type02_Mid-->
	<SceneryObject lat="47.50439329374638" lon="9.02075155676921" alt="0.00000000000000" pitch="0.000014" bank="-0.000014" heading="170.000007" imageComplexity="VERY_SPARSE" altitudeIsAgl="TRUE" snapToGround="TRUE" snapToNormal="FALSE">
		<LibraryObject name="{A38DFDCD-E4E5-4F7F-8794-18624E5F647F}" scale="1.200000"/>
	</SceneryObject>
	<!--SceneryObject name: Water_Tank_Type02_Mid-->
	<SceneryObject lat="47.50460375090481" lon="9.02079780524466" alt="0.00000000000000" pitch="0.000027" bank="-0.000027" heading="170.000007" imageComplexity="VERY_SPARSE" altitudeIsAgl="TRUE" snapToGround="TRUE" snapToNormal="FALSE">
		<LibraryObject name="{A38DFDCD-E4E5-4F7F-8794-18624E5F647F}" scale="1.200000"/>
	</SceneryObject>
	<!--SceneryObject name: Water_Tank_Type03_Mid-->
	<SceneryObject lat="47.50505492374879" lon="9.02100441970184" alt="0.00000000000000" pitch="0.000000" bank="0.000000" heading="170.000007" imageComplexity="VERY_SPARSE" altitudeIsAgl="TRUE" snapToGround="TRUE" snapToNormal="FALSE">
		<LibraryObject name="{DD794778-4164-40E6-BA7D-865660F211C3}" scale="1.800000"/>
	</SceneryObject>
	<!--SceneryObject name: Water_Tank_Type03_Mid-->
	<SceneryObject lat="47.50536835977185" lon="9.02111804253730" alt="0.00000000000000" pitch="0.000000" bank="0.000000" heading="170.000007" imageComplexity="VERY_SPARSE" altitudeIsAgl="TRUE" snapToGround="TRUE" snapToNormal="FALSE">
		<LibraryObject name="{DD794778-4164-40E6-BA7D-865660F211C3}" scale="1.800000"/>
	</SceneryObject>
	<!--SceneryObject name: Water_Tank_Type03_Mid-->
	<SceneryObject lat="47.50567092058940" lon="9.02123717553533" alt="0.00000000000000" pitch="0.000000" bank="0.000000" heading="170.000007" imageComplexity="VERY_SPARSE" altitudeIsAgl="TRUE" snapToGround="TRUE" snapToNormal="FALSE">
		<LibraryObject name="{DD794778-4164-40E6-BA7D-865660F211C3}" scale="1.800000"/>
	</SceneryObject>
	<!--SceneryObject name: Water_Tank_Type03_Tall-->
	<SceneryObject lat="47.50473125358950" lon="9.02028904158444" alt="0.00000000000000" pitch="0.000000" bank="0.000000" heading="170.000007" imageComplexity="VERY_SPARSE" altitudeIsAgl="TRUE" snapToGround="TRUE" snapToNormal="FALSE">
		<LibraryObject name="{AC5C503D-8E30-4272-AA7E-443C9BF48CCD}" scale="1.800000"/>
	</SceneryObject>
	<!--SceneryObject name: Water_Tank_Type03_Tall-->
	<SceneryObject lat="47.50495835764954" lon="9.02035136227388" alt="0.00000000000000" pitch="0.000000" bank="0.000000" heading="170.000007" imageComplexity="VERY_SPARSE" altitudeIsAgl="TRUE" snapToGround="TRUE" snapToNormal="FALSE">
		<LibraryObject name="{AC5C503D-8E30-4272-AA7E-443C9BF48CCD}" scale="1.800000"/>
	</SceneryObject>
	<!--SceneryObject name: Water_Tank_Type03_Tall-->
	<SceneryObject lat="47.50518709969936" lon="9.01983555952511" alt="0.00000000000000" pitch="0.000000" bank="0.000000" heading="170.000007" imageComplexity="VERY_SPARSE" altitudeIsAgl="TRUE" snapToGround="TRUE" snapToNormal="FALSE">
		<LibraryObject name="{AC5C503D-8E30-4272-AA7E-443C9BF48CCD}" scale="1.800000"/>
	</SceneryObject>
	<!--SceneryObject name: Water_Tank_Type03_Tall-->
	<SceneryObject lat="47.50518793524792" lon="9.02041471210251" alt="0.00000000000000" pitch="0.000000" bank="0.000000" heading="170.000007" imageComplexity="VERY_SPARSE" altitudeIsAgl="TRUE" snapToGround="TRUE" snapToNormal="FALSE">
		<LibraryObject name="{AC5C503D-8E30-4272-AA7E-443C9BF48CCD}" scale="1.800000"/>
	</SceneryObject>
	<!--SceneryObject name: Water_Tank_Type03_Tall-->
	<SceneryObject lat="47.50541729010185" lon="9.02045770607115" alt="0.00000000000000" pitch="0.000000" bank="0.000000" heading="170.000007" imageComplexity="VERY_SPARSE" altitudeIsAgl="TRUE" snapToGround="TRUE" snapToNormal="FALSE">
		<LibraryObject name="{AC5C503D-8E30-4272-AA7E-443C9BF48CCD}" scale="1.800000"/>
	</SceneryObject>
	<!--SceneryObject name: Water_Tank_Type04_Mid-->
	<SceneryObject lat="47.50329573997006" lon="9.01929501295409" alt="0.00000000000000" pitch="0.000000" bank="0.000000" heading="170.000007" imageComplexity="VERY_SPARSE" altitudeIsAgl="TRUE" snapToGround="TRUE" snapToNormal="FALSE">
		<LibraryObject name="{3533AEAD-E407-47FB-81EB-4CB880D62D6C}" scale="1.800000"/>
	</SceneryObject>
	<!--SceneryObject name: Water_Tank_Type04_Mid-->
	<SceneryObject lat="47.50358337543928" lon="9.01936674009683" alt="0.00000000000000" pitch="0.000000" bank="0.000000" heading="170.000007" imageComplexity="VERY_SPARSE" altitudeIsAgl="TRUE" snapToGround="TRUE" snapToNormal="FALSE">
		<LibraryObject name="{3533AEAD-E407-47FB-81EB-4CB880D62D6C}" scale="1.800000"/>
	</SceneryObject>
	<!--SceneryObject name: Water_Tank_Type04_Mid-->
	<SceneryObject lat="47.50387085896732" lon="9.01943458269990" alt="0.00000000000000" pitch="0.000000" bank="0.000000" heading="170.000007" imageComplexity="VERY_SPARSE" altitudeIsAgl="TRUE" snapToGround="TRUE" snapToNormal="FALSE">
		<LibraryObject name="{3533AEAD-E407-47FB-81EB-4CB880D62D6C}" scale="1.800000"/>
	</SceneryObject>
	<!--SceneryObject name: Water_Tank_Type04_Mid-->
	<SceneryObject lat="47.50415969314310" lon="9.01950599495316" alt="0.00000000000000" pitch="0.000000" bank="0.000000" heading="170.000007" imageComplexity="VERY_SPARSE" altitudeIsAgl="TRUE" snapToGround="TRUE" snapToNormal="FALSE">
		<LibraryObject name="{3533AEAD-E407-47FB-81EB-4CB880D62D6C}" scale="1.800000"/>
	</SceneryObject>
	<!--SceneryObject name: Water_Tank_Type04_Mid-->
	<SceneryObject lat="47.50467495761796" lon="9.01961968626700" alt="0.00000000000000" pitch="0.000000" bank="0.000000" heading="170.000007" imageComplexity="VERY_SPARSE" altitudeIsAgl="TRUE" snapToGround="TRUE" snapToNormal="FALSE">
		<LibraryObject name="{3533AEAD-E407-47FB-81EB-4CB880D62D6C}" scale="1.800000"/>
	</SceneryObject>
	<!--SceneryObject name: Water_Tank_Type04_Mid-->
	<SceneryObject lat="47.50495870075785" lon="9.01969194273435" alt="0.00000000000000" pitch="0.000000" bank="0.000000" heading="170.000007" imageComplexity="VERY_SPARSE" altitudeIsAgl="TRUE" snapToGround="TRUE" snapToNormal="FALSE">
		<LibraryObject name="{3533AEAD-E407-47FB-81EB-4CB880D62D6C}" scale="1.800000"/>
	</SceneryObject>
	<!--SceneryObject name: Water_Tank_Type05_Mid-->
	<SceneryObject lat="47.50275877539038" lon="9.02041234833951" alt="0.00000000000000" pitch="0.000000" bank="0.000000" heading="170.000007" imageComplexity="VERY_SPARSE" altitudeIsAgl="TRUE" snapToGround="TRUE" snapToNormal="FALSE">
		<LibraryObject name="{1956D8BA-F6B5-4CEB-BDB5-A13FBE2F98DE}" scale="1.500000"/>
	</SceneryObject>
	<!--SceneryObject name: Water_Tank_Type05_Mid-->
	<SceneryObject lat="47.50300477871551" lon="9.02042520319443" alt="0.00000000000000" pitch="0.000000" bank="0.000000" heading="170.000007" imageComplexity="VERY_SPARSE" altitudeIsAgl="TRUE" snapToGround="TRUE" snapToNormal="FALSE">
		<LibraryObject name="{1956D8BA-F6B5-4CEB-BDB5-A13FBE2F98DE}" scale="1.500000"/>
	</SceneryObject>
	<!--SceneryObject name: Water_Tank_Type05_Mid-->
	<SceneryObject lat="47.50302274065743" lon="9.01988699323229" alt="0.00000000000000" pitch="0.000000" bank="0.000000" heading="170.000007" imageComplexity="VERY_SPARSE" altitudeIsAgl="TRUE" snapToGround="TRUE" snapToNormal="FALSE">
		<LibraryObject name="{1956D8BA-F6B5-4CEB-BDB5-A13FBE2F98DE}" scale="1.500000"/>
	</SceneryObject>
	<!--SceneryObject name: Water_Tank_Type05_Mid-->
	<SceneryObject lat="47.50322004262231" lon="9.02048484954324" alt="0.00000000000000" pitch="0.000000" bank="0.000000" heading="170.000007" imageComplexity="VERY_SPARSE" altitudeIsAgl="TRUE" snapToGround="TRUE" snapToNormal="FALSE">
		<LibraryObject name="{1956D8BA-F6B5-4CEB-BDB5-A13FBE2F98DE}" scale="1.500000"/>
	</SceneryObject>
	<!--SceneryObject name: Water_Tank_Type05_Mid-->
	<SceneryObject lat="47.50325413187925" lon="9.01994704712537" alt="0.00000000000000" pitch="0.000000" bank="0.000000" heading="170.000007" imageComplexity="VERY_SPARSE" altitudeIsAgl="TRUE" snapToGround="TRUE" snapToNormal="FALSE">
		<LibraryObject name="{1956D8BA-F6B5-4CEB-BDB5-A13FBE2F98DE}" scale="1.500000"/>
	</SceneryObject>
	<!--SceneryObject name: Water_Tank_Type06_Tall-->
	<SceneryObject lat="47.50396751308384" lon="9.01902659161639" alt="0.00000000000000" pitch="0.000000" bank="0.000000" heading="170.000007" imageComplexity="VERY_SPARSE" altitudeIsAgl="TRUE" snapToGround="TRUE" snapToNormal="FALSE">
		<LibraryObject name="{476CD990-44BC-40FE-807C-1FD3846FCE7F}" scale="1.500000"/>
	</SceneryObject>
	<!--SceneryObject name: Water_Tank_Type06_Tall-->
	<SceneryObject lat="47.50414195240953" lon="9.01907612970609" alt="0.00000000000000" pitch="0.000000" bank="0.000000" heading="170.000007" imageComplexity="VERY_SPARSE" altitudeIsAgl="TRUE" snapToGround="TRUE" snapToNormal="FALSE">
		<LibraryObject name="{476CD990-44BC-40FE-807C-1FD3846FCE7F}" scale="1.500000"/>
	</SceneryObject>
	<!--SceneryObject name: Alcatraz_Lighthouse-->
	<SceneryObject lat="47.52381152015028" lon="8.99929620643817" alt="0.00000000000000" pitch="0.000417" bank="-0.000417" heading="152.591508" imageComplexity="VERY_SPARSE" altitudeIsAgl="TRUE" snapToGround="TRUE" snapToNormal="FALSE">
		<LibraryObject name="{81EDD81D-9276-4CF7-81F7-3BD16E7C1F3B}" scale="0.500000"/>
	</SceneryObject>
	<!--SceneryObject name: Automatic_Fence-->
	<SceneryObject lat="47.52403990884033" lon="8.99961766118581" alt="0.00000000000000" pitch="0.001318" bank="-0.001318" heading="152.882255" imageComplexity="VERY_SPARSE" altitudeIsAgl="TRUE" snapToGround="TRUE" snapToNormal="FALSE">
		<LibraryObject name="{8BEE7FF0-6CE8-4BD5-B053-20263F075E20}" scale="1.000000"/>
	</SceneryObject>
	<!--SceneryObject name: Barrier_Metal01-->
	<SceneryObject lat="47.52384231301252" lon="8.99968695189420" alt="0.00000000000000" pitch="0.000526" bank="-0.000526" heading="153.924542" imageComplexity="VERY_SPARSE" altitudeIsAgl="TRUE" snapToGround="TRUE" snapToNormal="FALSE">
		<LibraryObject name="{D975E2A3-7AF4-41A5-8A74-9995EC607EE5}" scale="1.000000"/>
	</SceneryObject>
	<!--SceneryObject name: Barrier_Metal01-->
	<SceneryObject lat="47.52385197458705" lon="8.99971572306122" alt="0.00000000000000" pitch="0.001544" bank="-0.001544" heading="154.108739" imageComplexity="VERY_SPARSE" altitudeIsAgl="TRUE" snapToGround="TRUE" snapToNormal="FALSE">
		<LibraryObject name="{D975E2A3-7AF4-41A5-8A74-9995EC607EE5}" scale="1.000000"/>
	</SceneryObject>
	<!--SceneryObject name: Barrier_Metal01-->
	<SceneryObject lat="47.52386155441216" lon="8.99974406508015" alt="0.00000000000000" pitch="0.001018" bank="-0.001018" heading="152.674563" imageComplexity="VERY_SPARSE" altitudeIsAgl="TRUE" snapToGround="TRUE" snapToNormal="FALSE">
		<LibraryObject name="{D975E2A3-7AF4-41A5-8A74-9995EC607EE5}" scale="1.000000"/>
	</SceneryObject>
	<!--SceneryObject name: Barrier_Metal01-->
	<SceneryObject lat="47.52387131060837" lon="8.99977233817848" alt="0.00000000000000" pitch="0.000014" bank="-0.000014" heading="152.000000" imageComplexity="VERY_SPARSE" altitudeIsAgl="TRUE" snapToGround="TRUE" snapToNormal="FALSE">
		<LibraryObject name="{D975E2A3-7AF4-41A5-8A74-9995EC607EE5}" scale="1.000000"/>
	</SceneryObject>
	<!--SceneryObject name: Barrier_Metal01-->
	<SceneryObject lat="47.52388622642288" lon="8.99977952846696" alt="0.00000000000000" pitch="0.000000" bank="0.000000" heading="66.000002" imageComplexity="VERY_SPARSE" altitudeIsAgl="TRUE" snapToGround="TRUE" snapToNormal="FALSE">
		<LibraryObject name="{D975E2A3-7AF4-41A5-8A74-9995EC607EE5}" scale="1.000000"/>
	</SceneryObject>
	<!--SceneryObject name: Barrier_Metal01-->
	<SceneryObject lat="47.52390597642702" lon="8.99976627006725" alt="0.00000000000000" pitch="0.000000" bank="0.000000" heading="66.000002" imageComplexity="VERY_SPARSE" altitudeIsAgl="TRUE" snapToGround="TRUE" snapToNormal="FALSE">
		<LibraryObject name="{D975E2A3-7AF4-41A5-8A74-9995EC607EE5}" scale="1.000000"/>
	</SceneryObject>
	<!--SceneryObject name: Barrier_Metal01-->
	<SceneryObject lat="47.52392531251453" lon="8.99975260063053" alt="0.00000000000000" pitch="0.000362" bank="-0.000362" heading="64.379218" imageComplexity="VERY_SPARSE" altitudeIsAgl="TRUE" snapToGround="TRUE" snapToNormal="FALSE">
		<LibraryObject name="{D975E2A3-7AF4-41A5-8A74-9995EC607EE5}" scale="1.000000"/>
	</SceneryObject>
	<!--SceneryObject name: Barrier_Metal01-->
	<SceneryObject lat="47.52394476149824" lon="8.99973798638601" alt="0.00000000000000" pitch="0.000478" bank="-0.000478" heading="63.379183" imageComplexity="VERY_SPARSE" altitudeIsAgl="TRUE" snapToGround="TRUE" snapToNormal="FALSE">
		<LibraryObject name="{D975E2A3-7AF4-41A5-8A74-9995EC607EE5}" scale="1.000000"/>
	</SceneryObject>
	<!--SceneryObject name: Barrier_Metal01-->
	<SceneryObject lat="47.52396410479653" lon="8.99972344896683" alt="0.00000000000000" pitch="0.000663" bank="-0.000663" heading="63.379101" imageComplexity="VERY_SPARSE" altitudeIsAgl="TRUE" snapToGround="TRUE" snapToNormal="FALSE">
		<LibraryObject name="{D975E2A3-7AF4-41A5-8A74-9995EC607EE5}" scale="1.000000"/>
	</SceneryObject>
	<!--SceneryObject name: Barrier_Metal01-->
	<SceneryObject lat="47.52399084490768" lon="8.99970367262911" alt="0.00000000000000" pitch="0.000451" bank="-0.000451" heading="63.743861" imageComplexity="VERY_SPARSE" altitudeIsAgl="TRUE" snapToGround="TRUE" snapToNormal="FALSE">
		<LibraryObject name="{D975E2A3-7AF4-41A5-8A74-9995EC607EE5}" scale="1.000000"/>
	</SceneryObject>
	<!--SceneryObject name: Barrier_Metal01-->
	<SceneryObject lat="47.52399380376801" lon="8.99968212225020" alt="0.00000000000000" pitch="0.000000" bank="0.000000" heading="153.000008" imageComplexity="VERY_SPARSE" altitudeIsAgl="TRUE" snapToGround="TRUE" snapToNormal="FALSE">
		<LibraryObject name="{D975E2A3-7AF4-41A5-8A74-9995EC607EE5}" scale="1.000000"/>
	</SceneryObject>
	<!--SceneryObject name: Bugalaga_TinyHouse03-->
	<SceneryObject lat="47.52374646513930" lon="8.99926558196243" alt="0.00000000000000" pitch="0.001011" bank="-0.001004" heading="-69.774330" imageComplexity="VERY_SPARSE" altitudeIsAgl="TRUE" snapToGround="TRUE" snapToNormal="FALSE">
		<LibraryObject name="{61C0761A-F8E3-46BD-8484-00A4EB483786}" scale="0.400000"/>
	</SceneryObject>
	<!--SceneryObject name: Bugalaga_TinyHouse03-->
	<SceneryObject lat="47.52431963909896" lon="8.99983685727190" alt="0.00000000000000" pitch="0.000000" bank="0.000000" heading="151.000005" imageComplexity="VERY_SPARSE" altitudeIsAgl="TRUE" snapToGround="TRUE" snapToNormal="FALSE">
		<LibraryObject name="{61C0761A-F8E3-46BD-8484-00A4EB483786}" scale="1.000000"/>
	</SceneryObject>
	<!--SceneryObject name: BushVarious03-->
	<SceneryObject lat="47.52383385505838" lon="8.99966883087358" alt="0.00000000000000" pitch="0.000000" bank="0.000000" heading="152.000000" imageComplexity="VERY_SPARSE" altitudeIsAgl="TRUE" snapToGround="TRUE" snapToNormal="FALSE">
		<LibraryObject name="{86636E02-F929-4CE4-AAE0-19078BA2B699}" scale="1.200000"/>
	</SceneryObject>
	<!--SceneryObject name: Bush_02-->
	<SceneryObject lat="47.52383212252936" lon="8.99968823046284" alt="0.00000000000000" pitch="0.000000" bank="0.000000" heading="152.000000" imageComplexity="VERY_SPARSE" altitudeIsAgl="TRUE" snapToGround="TRUE" snapToNormal="FALSE">
		<LibraryObject name="{617EFA8A-45E7-4945-BE66-64C73F1968D7}" scale="1.200000"/>
	</SceneryObject>
	<!--SceneryObject name: Bush_02-->
	<SceneryObject lat="47.52384994693512" lon="8.99973651133055" alt="0.00000000000000" pitch="0.000000" bank="0.000000" heading="152.000000" imageComplexity="VERY_SPARSE" altitudeIsAgl="TRUE" snapToGround="TRUE" snapToNormal="FALSE">
		<LibraryObject name="{617EFA8A-45E7-4945-BE66-64C73F1968D7}" scale="1.200000"/>
	</SceneryObject>
	<!--SceneryObject name: Bush_Juniper-->
	<SceneryObject lat="47.52367738665011" lon="8.99914318499822" alt="0.00000000000000" pitch="0.000000" bank="0.000000" heading="157.000012" imageComplexity="VERY_SPARSE" altitudeIsAgl="TRUE" snapToGround="TRUE" snapToNormal="FALSE">
		<LibraryObject name="{2ADE52E8-C6D5-4F36-92CD-575FA23BC249}" scale="1.000000"/>
	</SceneryObject>
	<!--SceneryObject name: Bush_Juniper_Potted-->
	<SceneryObject lat="47.52383961800694" lon="8.99953164710690" alt="0.00000000000000" pitch="0.000888" bank="-0.000888" heading="154.000002" imageComplexity="VERY_SPARSE" altitudeIsAgl="TRUE" snapToGround="TRUE" snapToNormal="FALSE">
		<LibraryObject name="{58A0F854-335A-4B2F-BAE4-F7D7C57677EC}" scale="0.700000"/>
	</SceneryObject>
	<!--SceneryObject name: Car01_Yellow-->
	<SceneryObject lat="47.52395736530145" lon="8.99977159622212" alt="0.00000000000000" pitch="0.000594" bank="-0.000594" heading="-116.967290" imageComplexity="VERY_SPARSE" altitudeIsAgl="TRUE" snapToGround="TRUE" snapToNormal="FALSE">
		<LibraryObject name="{0BDAA1CC-0EA6-4D46-BD1A-E99ABFC009B8}" scale="1.000000"/>
	</SceneryObject>
	<!--SceneryObject name: Car02_Black-->
	<SceneryObject lat="47.52445650478657" lon="8.99982008613309" alt="0.00000000000000" pitch="0.000000" bank="0.000000" heading="0.000000" imageComplexity="VERY_SPARSE" altitudeIsAgl="TRUE" snapToGround="TRUE" snapToNormal="FALSE">
		<LibraryObject name="{18A62F92-2507-4965-A8ED-B3083C2447B0}" scale="1.000000"/>
	</SceneryObject>
	<!--SceneryObject name: Car02_Blue-->
	<SceneryObject lat="47.52446797114587" lon="8.99986191272502" alt="0.00000000000000" pitch="0.000000" bank="0.000000" heading="0.000000" imageComplexity="VERY_SPARSE" altitudeIsAgl="TRUE" snapToGround="TRUE" snapToNormal="FALSE">
		<LibraryObject name="{1E3E0562-E890-48DD-B785-0C3FE6C09177}" scale="1.000000"/>
	</SceneryObject>
	<!--SceneryObject name: Car_Line_7C_02-->
	<SceneryObject lat="47.52412897555215" lon="8.99949725052250" alt="0.00000000000000" pitch="0.000000" bank="0.000000" heading="62.999998" imageComplexity="VERY_SPARSE" altitudeIsAgl="TRUE" snapToGround="TRUE" snapToNormal="FALSE">
		<LibraryObject name="{8CF18816-B926-4B9A-80F4-59ADAED13AD6}" scale="1.000000"/>
	</SceneryObject>
	<!--SceneryObject name: Car_Pack_8C_01-->
	<SceneryObject lat="47.52402476775686" lon="8.99936902288304" alt="0.00000000000000" pitch="0.000000" bank="0.000000" heading="62.999998" imageComplexity="VERY_SPARSE" altitudeIsAgl="TRUE" snapToGround="TRUE" snapToNormal="FALSE">
		<LibraryObject name="{304DCAC6-90B1-42A1-A004-F454E5A69D8B}" scale="1.000000"/>
	</SceneryObject>
	<!--SceneryObject name: ConstructionPipe02-->
	<SceneryObject lat="47.52382246277341" lon="8.99933425564835" alt="0.00000000000000" pitch="0.001216" bank="-0.001216" heading="-114.235385" imageComplexity="VERY_SPARSE" altitudeIsAgl="TRUE" snapToGround="TRUE" snapToNormal="FALSE">
		<LibraryObject name="{AB45BDA6-75B6-47D0-878C-E67B6EDD8EC3}" scale="0.500000"/>
	</SceneryObject>
	<!--SceneryObject name: FenceMetallic_1m-->
	<SceneryObject lat="47.52370292982049" lon="8.99915489474039" alt="0.00000000000000" pitch="0.000000" bank="0.000000" heading="112.000001" imageComplexity="VERY_SPARSE" altitudeIsAgl="TRUE" snapToGround="TRUE" snapToNormal="FALSE">
		<LibraryObject name="{C747BE4B-DA8E-4F99-A17A-50E6DFCF8F89}" scale="1.000000"/>
	</SceneryObject>
	<!--SceneryObject name: FenceMetallic_1m-->
	<SceneryObject lat="47.52383350521903" lon="8.99925262417485" alt="0.00000000000000" pitch="0.000348" bank="-0.000348" heading="151.823521" imageComplexity="VERY_SPARSE" altitudeIsAgl="TRUE" snapToGround="TRUE" snapToNormal="FALSE">
		<LibraryObject name="{C747BE4B-DA8E-4F99-A17A-50E6DFCF8F89}" scale="1.000000"/>
	</SceneryObject>
	<!--SceneryObject name: FenceMetallic_1m-->
	<SceneryObject lat="47.52385064607957" lon="8.99930108700316" alt="0.00000000000000" pitch="0.000922" bank="-0.000922" heading="153.366201" imageComplexity="VERY_SPARSE" altitudeIsAgl="TRUE" snapToGround="TRUE" snapToNormal="FALSE">
		<LibraryObject name="{C747BE4B-DA8E-4F99-A17A-50E6DFCF8F89}" scale="1.000000"/>
	</SceneryObject>
	<!--SceneryObject name: FenceMetallic_3m-->
	<SceneryObject lat="47.52373811322231" lon="8.99917569949936" alt="0.00000000000000" pitch="0.000000" bank="0.000000" heading="112.000001" imageComplexity="VERY_SPARSE" altitudeIsAgl="TRUE" snapToGround="TRUE" snapToNormal="FALSE">
		<LibraryObject name="{8C70DAC4-BD05-47C4-A98E-0B93DB74B042}" scale="1.000000"/>
	</SceneryObject>
	<!--SceneryObject name: Fence_Nature01_Little-->
	<SceneryObject lat="47.52367755437559" lon="8.99920241095998" alt="0.00000000000000" pitch="0.000000" bank="0.000000" heading="76.000000" imageComplexity="VERY_SPARSE" altitudeIsAgl="TRUE" snapToGround="TRUE" snapToNormal="FALSE">
		<LibraryObject name="{7C293E2E-30C8-46DA-BDCC-90EC6664BDF0}" scale="1.000000"/>
	</SceneryObject>
	<!--SceneryObject name: Fence_Nature01_Little-->
	<SceneryObject lat="47.52368534842426" lon="8.99924765406278" alt="0.00000000000000" pitch="0.000000" bank="0.000000" heading="76.000000" imageComplexity="VERY_SPARSE" altitudeIsAgl="TRUE" snapToGround="TRUE" snapToNormal="FALSE">
		<LibraryObject name="{7C293E2E-30C8-46DA-BDCC-90EC6664BDF0}" scale="1.000000"/>
	</SceneryObject>
	<!--SceneryObject name: Fence_Nature01_Little-->
	<SceneryObject lat="47.52369287608225" lon="8.99929284814423" alt="0.00000000000000" pitch="0.000000" bank="0.000000" heading="76.000000" imageComplexity="VERY_SPARSE" altitudeIsAgl="TRUE" snapToGround="TRUE" snapToNormal="FALSE">
		<LibraryObject name="{7C293E2E-30C8-46DA-BDCC-90EC6664BDF0}" scale="1.000000"/>
	</SceneryObject>
	<!--SceneryObject name: Fence_Nature01_Little-->
	<SceneryObject lat="47.52370030122619" lon="8.99933738132175" alt="0.00000000000000" pitch="0.000000" bank="0.000000" heading="76.000000" imageComplexity="VERY_SPARSE" altitudeIsAgl="TRUE" snapToGround="TRUE" snapToNormal="FALSE">
		<LibraryObject name="{7C293E2E-30C8-46DA-BDCC-90EC6664BDF0}" scale="1.000000"/>
	</SceneryObject>
	<!--SceneryObject name: Fence_Nature01_Little-->
	<SceneryObject lat="47.52370779422216" lon="8.99938221252818" alt="0.00000000000000" pitch="0.000000" bank="0.000000" heading="76.000000" imageComplexity="VERY_SPARSE" altitudeIsAgl="TRUE" snapToGround="TRUE" snapToNormal="FALSE">
		<LibraryObject name="{7C293E2E-30C8-46DA-BDCC-90EC6664BDF0}" scale="1.000000"/>
	</SceneryObject>
	<!--SceneryObject name: Fence_Nature01_Little-->
	<SceneryObject lat="47.52371552061760" lon="8.99942730878120" alt="0.00000000000000" pitch="0.000000" bank="0.000000" heading="76.000000" imageComplexity="VERY_SPARSE" altitudeIsAgl="TRUE" snapToGround="TRUE" snapToNormal="FALSE">
		<LibraryObject name="{7C293E2E-30C8-46DA-BDCC-90EC6664BDF0}" scale="1.000000"/>
	</SceneryObject>
	<!--SceneryObject name: Fence_Nature01_Little-->
	<SceneryObject lat="47.52372682156381" lon="8.99946966557559" alt="0.00000000000000" pitch="0.000000" bank="0.000000" heading="62.000004" imageComplexity="VERY_SPARSE" altitudeIsAgl="TRUE" snapToGround="TRUE" snapToNormal="FALSE">
		<LibraryObject name="{7C293E2E-30C8-46DA-BDCC-90EC6664BDF0}" scale="1.000000"/>
	</SceneryObject>
	<!--SceneryObject name: Fence_Nature01_Little-->
	<SceneryObject lat="47.52374169882651" lon="8.99951071880009" alt="0.00000000000000" pitch="0.000000" bank="0.000000" heading="62.000004" imageComplexity="VERY_SPARSE" altitudeIsAgl="TRUE" snapToGround="TRUE" snapToNormal="FALSE">
		<LibraryObject name="{7C293E2E-30C8-46DA-BDCC-90EC6664BDF0}" scale="1.000000"/>
	</SceneryObject>
	<!--SceneryObject name: Fence_Nature01_Little-->
	<SceneryObject lat="47.52375652930484" lon="8.99955184993487" alt="0.00000000000000" pitch="0.000000" bank="0.000000" heading="62.000004" imageComplexity="VERY_SPARSE" altitudeIsAgl="TRUE" snapToGround="TRUE" snapToNormal="FALSE">
		<LibraryObject name="{7C293E2E-30C8-46DA-BDCC-90EC6664BDF0}" scale="1.000000"/>
	</SceneryObject>
	<!--SceneryObject name: Fence_Nature01_Little-->
	<SceneryObject lat="47.52377122970561" lon="8.99959272290727" alt="0.00000000000000" pitch="0.000000" bank="0.000000" heading="62.000004" imageComplexity="VERY_SPARSE" altitudeIsAgl="TRUE" snapToGround="TRUE" snapToNormal="FALSE">
		<LibraryObject name="{7C293E2E-30C8-46DA-BDCC-90EC6664BDF0}" scale="1.000000"/>
	</SceneryObject>
	<!--SceneryObject name: Fence_Nature01_Little-->
	<SceneryObject lat="47.52378585043697" lon="8.99963355386336" alt="0.00000000000000" pitch="0.000014" bank="-0.000014" heading="62.000004" imageComplexity="VERY_SPARSE" altitudeIsAgl="TRUE" snapToGround="TRUE" snapToNormal="FALSE">
		<LibraryObject name="{7C293E2E-30C8-46DA-BDCC-90EC6664BDF0}" scale="1.000000"/>
	</SceneryObject>
	<!--SceneryObject name: Fence_Nature01_Little-->
	<SceneryObject lat="47.52380620444141" lon="8.99964367537577" alt="0.00000000000000" pitch="0.000000" bank="0.000000" heading="154.999996" imageComplexity="VERY_SPARSE" altitudeIsAgl="TRUE" snapToGround="TRUE" snapToNormal="FALSE">
		<LibraryObject name="{7C293E2E-30C8-46DA-BDCC-90EC6664BDF0}" scale="1.000000"/>
	</SceneryObject>
	<!--SceneryObject name: FuelTruck01_Black-->
	<SceneryObject lat="47.52403888888512" lon="9.00021388888889" alt="0.00000000000000" pitch="0.000908" bank="-0.000840" heading="-118.000233" imageComplexity="VERY_SPARSE" altitudeIsAgl="TRUE" snapToGround="TRUE" snapToNormal="FALSE">
		<LibraryObject name="{867E8579-7FA5-4FAD-AF41-E3C89CB6DE44}" scale="1.000000"/>
	</SceneryObject>
	<!--SceneryObject name: Garbage_Container02_Little-->
	<SceneryObject lat="47.52396313304753" lon="8.99969953952285" alt="0.00000000000000" pitch="0.000000" bank="0.000000" heading="62.000004" imageComplexity="VERY_SPARSE" altitudeIsAgl="TRUE" snapToGround="TRUE" snapToNormal="FALSE">
		<LibraryObject name="{6B095CF6-4FB1-456B-95F4-827322C06031}" scale="1.000000"/>
	</SceneryObject>
	<!--SceneryObject name: Garden_Bush02-->
	<SceneryObject lat="47.52367720111403" lon="8.99916761604874" alt="0.00000000000000" pitch="0.000000" bank="0.000000" heading="157.000012" imageComplexity="VERY_SPARSE" altitudeIsAgl="TRUE" snapToGround="TRUE" snapToNormal="FALSE">
		<LibraryObject name="{01A6311F-B9E5-4997-B7B8-693B31D5CA29}" scale="1.000000"/>
	</SceneryObject>
	<!--SceneryObject name: Gen_Airport_RedWhite_Antenna_01-->
	<SceneryObject lat="47.52205836682314" lon="9.02701050682434" alt="0.00000000000000" pitch="0.000068" bank="-0.000068" heading="151.000033" imageComplexity="VERY_SPARSE" altitudeIsAgl="TRUE" snapToGround="TRUE" snapToNormal="FALSE">
		<LibraryObject name="{1DEF7401-E51C-44DE-B545-C7B2002E289E}" scale="2.800000"/>
	</SceneryObject>
	<!--SceneryObject name: Gen_Hangar02-->
	<SceneryObject lat="47.52433493538308" lon="9.00008335539871" alt="0.00000000000000" pitch="0.001544" bank="-0.001544" heading="152.200001" imageComplexity="VERY_SPARSE" altitudeIsAgl="TRUE" snapToGround="TRUE" snapToNormal="FALSE">
		<LibraryObject name="{9218816C-5828-4392-8C1A-E52B26681CE4}" scale="0.830000"/>
	</SceneryObject>
	<!--SceneryObject name: Gen_Hangar02-->
	<SceneryObject lat="47.52442668153419" lon="9.00034657891494" alt="0.00000000000000" pitch="0.001544" bank="-0.001544" heading="152.200001" imageComplexity="VERY_SPARSE" altitudeIsAgl="TRUE" snapToGround="TRUE" snapToNormal="FALSE">
		<LibraryObject name="{9218816C-5828-4392-8C1A-E52B26681CE4}" scale="0.830000"/>
	</SceneryObject>
	<!--SceneryObject name: Gen_Hangar02-->
	<SceneryObject lat="47.52451835629435" lon="9.00060521688199" alt="0.00000000000000" pitch="0.001544" bank="-0.001544" heading="152.200001" imageComplexity="VERY_SPARSE" altitudeIsAgl="TRUE" snapToGround="TRUE" snapToNormal="FALSE">
		<LibraryObject name="{9218816C-5828-4392-8C1A-E52B26681CE4}" scale="0.830000"/>
	</SceneryObject>
	<!--SceneryObject name: Gen_Hangar02-->
	<SceneryObject lat="47.52461111989808" lon="9.00086713744234" alt="0.00000000000000" pitch="0.001543" bank="-0.001543" heading="152.200001" imageComplexity="VERY_SPARSE" altitudeIsAgl="TRUE" snapToGround="TRUE" snapToNormal="FALSE">
		<LibraryObject name="{9218816C-5828-4392-8C1A-E52B26681CE4}" scale="0.830000"/>
	</SceneryObject>
	<!--SceneryObject name: Gen_Hangar02-->
	<SceneryObject lat="47.52470379460478" lon="9.00112741730037" alt="0.00000000000000" pitch="0.001543" bank="-0.001543" heading="152.200001" imageComplexity="VERY_SPARSE" altitudeIsAgl="TRUE" snapToGround="TRUE" snapToNormal="FALSE">
		<LibraryObject name="{9218816C-5828-4392-8C1A-E52B26681CE4}" scale="0.830000"/>
	</SceneryObject>
	<!--SceneryObject name: Gen_Hangar100-->
	<SceneryObject lat="47.52423804364176" lon="8.99964440127697" alt="0.00000000000000" pitch="0.000055" bank="-0.000055" heading="62.999998" imageComplexity="VERY_SPARSE" altitudeIsAgl="TRUE" snapToGround="TRUE" snapToNormal="FALSE">
		<LibraryObject name="{80605B39-9A33-46F8-8306-648415D102F9}" scale="1.200000"/>
	</SceneryObject>
	<!--SceneryObject name: Gen_Hangar121-->
	<SceneryObject lat="47.52414636563633" lon="8.99970990207137" alt="0.00000000000000" pitch="0.001544" bank="-0.001544" heading="-27.611299" imageComplexity="VERY_SPARSE" altitudeIsAgl="TRUE" snapToGround="TRUE" snapToNormal="FALSE">
		<LibraryObject name="{42555E22-3916-44A5-800A-7C908FDC51C2}" scale="1.100000"/>
	</SceneryObject>
	<!--SceneryObject name: Gibraltar_Building07-->
	<SceneryObject lat="47.52390425274665" lon="8.99960471107807" alt="0.00000000000000" pitch="0.000082" bank="-0.000082" heading="-27.000018" imageComplexity="VERY_SPARSE" altitudeIsAgl="TRUE" snapToGround="TRUE" snapToNormal="FALSE">
		<LibraryObject name="{1CE2E4DC-8579-47CF-942F-296B1050BD7E}" scale="0.820000"/>
	</SceneryObject>
	<!--SceneryObject name: Kerama_Antenna01-->
	<SceneryObject lat="47.52204115908570" lon="9.02705232052616" alt="0.00000000000000" pitch="0.000041" bank="-0.000041" heading="151.000033" imageComplexity="VERY_SPARSE" altitudeIsAgl="TRUE" snapToGround="TRUE" snapToNormal="FALSE">
		<LibraryObject name="{064FE77B-1D19-4219-A0D3-332ECEB8E315}" scale="2.500000"/>
	</SceneryObject>
	<!--SceneryObject name: Mariscal_Sucre_Building_19-->
	<SceneryObject lat="47.52383768970896" lon="8.99963996432849" alt="0.00000000000000" pitch="0.000041" bank="-0.000041" heading="64.000006" imageComplexity="VERY_SPARSE" altitudeIsAgl="TRUE" snapToGround="TRUE" snapToNormal="FALSE">
		<LibraryObject name="{2149B923-0400-4A35-90AF-641A14728EAF}" scale="0.550000"/>
	</SceneryObject>
	<!--SceneryObject name: Mariscal_Sucre_Building_19-->
	<SceneryObject lat="47.52407055555179" lon="9.00021472222222" alt="0.00000000000000" pitch="0.000027" bank="-0.000027" heading="151.999986" imageComplexity="VERY_SPARSE" altitudeIsAgl="TRUE" snapToGround="TRUE" snapToNormal="FALSE">
		<LibraryObject name="{2149B923-0400-4A35-90AF-641A14728EAF}" scale="1.000000"/>
	</SceneryObject>
	<!--SceneryObject name: Panel_Sign_Big_02-->
	<SceneryObject lat="47.52387713023902" lon="8.99939761647064" alt="0.00000000000000" pitch="0.000000" bank="0.000000" heading="154.000002" imageComplexity="VERY_SPARSE" altitudeIsAgl="TRUE" snapToGround="TRUE" snapToNormal="FALSE">
		<LibraryObject name="{C55C4060-919E-4167-BF9C-FEF5597AD07B}" scale="1.000000"/>
	</SceneryObject>
	<!--SceneryObject name: Panel_Sign_small_Pub_01-->
	<SceneryObject lat="47.52383937282886" lon="8.99947035921699" alt="0.00000000000000" pitch="0.000014" bank="-0.000014" heading="154.000002" imageComplexity="VERY_SPARSE" altitudeIsAgl="TRUE" snapToGround="TRUE" snapToNormal="FALSE">
		<LibraryObject name="{8E9899E3-7842-42BA-B742-D85B25849D91}" scale="1.400000"/>
	</SceneryObject>
	<!--SceneryObject name: Panel_Sign_small_Pub_02-->
	<SceneryObject lat="47.52384160627670" lon="8.99957275255482" alt="0.00000000000000" pitch="0.000758" bank="-0.000806" heading="-16.630247" imageComplexity="VERY_SPARSE" altitudeIsAgl="TRUE" snapToGround="TRUE" snapToNormal="FALSE">
		<LibraryObject name="{C308D72F-AA49-474F-913C-924B4DAA3111}" scale="1.300000"/>
	</SceneryObject>
	<!--SceneryObject name: Parasol01-->
	<SceneryObject lat="47.52376888621143" lon="8.99946746048161" alt="0.00000000000000" pitch="0.000014" bank="-0.000014" heading="-179.999991" imageComplexity="VERY_SPARSE" altitudeIsAgl="TRUE" snapToGround="TRUE" snapToNormal="FALSE">
		<LibraryObject name="{F0ABE293-9437-4B91-B320-8579D692EB08}" scale="1.400000"/>
	</SceneryObject>
	<!--SceneryObject name: Parasol01-->
	<SceneryObject lat="47.52378473521132" lon="8.99952101534709" alt="0.00000000000000" pitch="0.000014" bank="-0.000014" heading="-179.999991" imageComplexity="VERY_SPARSE" altitudeIsAgl="TRUE" snapToGround="TRUE" snapToNormal="FALSE">
		<LibraryObject name="{F0ABE293-9437-4B91-B320-8579D692EB08}" scale="1.400000"/>
	</SceneryObject>
	<!--SceneryObject name: Parasol01-->
	<SceneryObject lat="47.52380253317010" lon="8.99957388883021" alt="0.00000000000000" pitch="0.000041" bank="-0.000041" heading="-179.999991" imageComplexity="VERY_SPARSE" altitudeIsAgl="TRUE" snapToGround="TRUE" snapToNormal="FALSE">
		<LibraryObject name="{F0ABE293-9437-4B91-B320-8579D692EB08}" scale="1.400000"/>
	</SceneryObject>
	<!--SceneryObject name: Parasol01_closed-->
	<SceneryObject lat="47.52380128263615" lon="8.99943954894658" alt="0.00000000000000" pitch="0.000014" bank="-0.000014" heading="161.000003" imageComplexity="VERY_SPARSE" altitudeIsAgl="TRUE" snapToGround="TRUE" snapToNormal="FALSE">
		<LibraryObject name="{AFF7DA65-116F-4811-90B4-A80DDFC47965}" scale="1.400000"/>
	</SceneryObject>
	<!--SceneryObject name: Parasol01_closed-->
	<SceneryObject lat="47.52381940054691" lon="8.99949534781287" alt="0.00000000000000" pitch="0.000014" bank="-0.000014" heading="161.000003" imageComplexity="VERY_SPARSE" altitudeIsAgl="TRUE" snapToGround="TRUE" snapToNormal="FALSE">
		<LibraryObject name="{AFF7DA65-116F-4811-90B4-A80DDFC47965}" scale="1.400000"/>
	</SceneryObject>
	<!--SceneryObject name: Pickup01_Black-->
	<SceneryObject lat="47.52443967039103" lon="8.99977561352877" alt="0.00000000000000" pitch="0.000000" bank="0.000000" heading="0.000000" imageComplexity="VERY_SPARSE" altitudeIsAgl="TRUE" snapToGround="TRUE" snapToNormal="FALSE">
		<LibraryObject name="{2788AB17-2BE4-4D18-A984-59F03598557E}" scale="1.000000"/>
	</SceneryObject>
	<!--SceneryObject name: Picnic_Table01-->
	<SceneryObject lat="47.52375010110764" lon="8.99946720460990" alt="0.00000000000000" pitch="0.000014" bank="-0.000014" heading="154.000002" imageComplexity="VERY_SPARSE" altitudeIsAgl="TRUE" snapToGround="TRUE" snapToNormal="FALSE">
		<LibraryObject name="{C7E4CFE6-007D-460D-B084-5E2667C7CEF0}" scale="1.300000"/>
	</SceneryObject>
	<!--SceneryObject name: Picnic_Table01-->
	<SceneryObject lat="47.52376625648373" lon="8.99951640399554" alt="0.00000000000000" pitch="0.000014" bank="-0.000014" heading="154.000002" imageComplexity="VERY_SPARSE" altitudeIsAgl="TRUE" snapToGround="TRUE" snapToNormal="FALSE">
		<LibraryObject name="{C7E4CFE6-007D-460D-B084-5E2667C7CEF0}" scale="1.300000"/>
	</SceneryObject>
	<!--SceneryObject name: Picnic_Table01-->
	<SceneryObject lat="47.52378236892707" lon="8.99956273569337" alt="0.00000000000000" pitch="0.000027" bank="-0.000027" heading="154.000002" imageComplexity="VERY_SPARSE" altitudeIsAgl="TRUE" snapToGround="TRUE" snapToNormal="FALSE">
		<LibraryObject name="{C7E4CFE6-007D-460D-B084-5E2667C7CEF0}" scale="1.300000"/>
	</SceneryObject>
	<!--SceneryObject name: Picnic_Table01-->
	<SceneryObject lat="47.52378302805518" lon="8.99944292671614" alt="0.00000000000000" pitch="0.000014" bank="-0.000014" heading="154.000002" imageComplexity="VERY_SPARSE" altitudeIsAgl="TRUE" snapToGround="TRUE" snapToNormal="FALSE">
		<LibraryObject name="{C7E4CFE6-007D-460D-B084-5E2667C7CEF0}" scale="1.300000"/>
	</SceneryObject>
	<!--SceneryObject name: Picnic_Table01-->
	<SceneryObject lat="47.52379904336645" lon="8.99960768493148" alt="0.00000000000000" pitch="0.000041" bank="-0.000041" heading="154.000002" imageComplexity="VERY_SPARSE" altitudeIsAgl="TRUE" snapToGround="TRUE" snapToNormal="FALSE">
		<LibraryObject name="{C7E4CFE6-007D-460D-B084-5E2667C7CEF0}" scale="1.300000"/>
	</SceneryObject>
	<!--SceneryObject name: Picnic_Table01-->
	<SceneryObject lat="47.52379937735285" lon="8.99949240853741" alt="0.00000000000000" pitch="0.000014" bank="-0.000014" heading="154.000002" imageComplexity="VERY_SPARSE" altitudeIsAgl="TRUE" snapToGround="TRUE" snapToNormal="FALSE">
		<LibraryObject name="{C7E4CFE6-007D-460D-B084-5E2667C7CEF0}" scale="1.300000"/>
	</SceneryObject>
	<!--SceneryObject name: Pilot_Male_Casual_IDLE-->
	<SceneryObject lat="47.52378242157029" lon="8.99958825406075" alt="0.00000000000000" pitch="0.000000" bank="0.000000" heading="135.000000" imageComplexity="VERY_SPARSE" altitudeIsAgl="TRUE" snapToGround="TRUE" snapToNormal="FALSE">
		<LibraryObject name="{19775524-A6DB-4C31-BE0A-A46767107B87}" scale="1.200000"/>
	</SceneryObject>
	<!--SceneryObject name: Pilot_Male_Casual_IDLE-->
	<SceneryObject lat="47.52397130037494" lon="8.99982056380220" alt="0.00000000000000" pitch="0.001209" bank="-0.001209" heading="35.292148" imageComplexity="VERY_SPARSE" altitudeIsAgl="TRUE" snapToGround="TRUE" snapToNormal="FALSE">
		<LibraryObject name="{19775524-A6DB-4C31-BE0A-A46767107B87}" scale="1.100000"/>
	</SceneryObject>
	<!--SceneryObject name: Road_Sign_Stop-->
	<SceneryObject lat="47.52278472231663" lon="8.99873552648274" alt="0.00000000000000" pitch="0.000273" bank="-0.000232" heading="69.073444" imageComplexity="VERY_SPARSE" altitudeIsAgl="TRUE" snapToGround="TRUE" snapToNormal="FALSE">
		<LibraryObject name="{3D25C04A-E350-43C2-B950-305269C2ACA2}" scale="1.200000"/>
	</SceneryObject>
	<!--SceneryObject name: Road_Sign_Stop-->
	<SceneryObject lat="47.52278499999623" lon="8.99864361111111" alt="0.00000000000000" pitch="0.000027" bank="-0.000027" heading="19.999996" imageComplexity="VERY_SPARSE" altitudeIsAgl="TRUE" snapToGround="TRUE" snapToNormal="FALSE">
		<LibraryObject name="{3D25C04A-E350-43C2-B950-305269C2ACA2}" scale="1.200000"/>
	</SceneryObject>
	<!--SceneryObject name: Road_Sign_Stop-->
	<SceneryObject lat="47.52354333332956" lon="8.99906472222222" alt="0.00000000000000" pitch="0.000027" bank="-0.000027" heading="19.999996" imageComplexity="VERY_SPARSE" altitudeIsAgl="TRUE" snapToGround="TRUE" snapToNormal="FALSE">
		<LibraryObject name="{3D25C04A-E350-43C2-B950-305269C2ACA2}" scale="1.200000"/>
	</SceneryObject>
	<SceneryObject lat="47.52390361110732" lon="8.99996305555556" alt="0.00000000000000" pitch="0.000068" bank="-0.000068" heading="63.600051" imageComplexity="VERY_SPARSE" altitudeIsAgl="TRUE" snapToGround="TRUE" snapToNormal="FALSE">
		<SimObject containerTitle="LSZT-tee" scale="1.000000"/>
	</SceneryObject>
	<SceneryObject lat="47.52379288286380" lon="8.99959841215776" alt="0.55000000000000" pitch="0.000027" bank="-0.000027" heading="112.000062" imageComplexity="VERY_SPARSE" altitudeIsAgl="TRUE" snapToGround="FALSE" snapToNormal="FALSE">
		<SimObject containerTitle="Pilot_Female_Asian" scale="1.200000"/>
	</SceneryObject>
	<SceneryObject lat="47.52398253992256" lon="8.99982459538210" alt="0.00000000000000" pitch="0.000014" bank="-0.000014" heading="147.000001" imageComplexity="VERY_SPARSE" altitudeIsAgl="TRUE" snapToGround="TRUE" snapToNormal="FALSE">
		<SimObject containerTitle="Tarmac_Female_Summer_Asian" scale="1.100000"/>
	</SceneryObject>
	<!--SceneryObject name: SportCar01_Green-->
	<SceneryObject lat="47.52442964206107" lon="8.99973523709214" alt="0.00000000000000" pitch="0.000000" bank="0.000000" heading="0.000000" imageComplexity="VERY_SPARSE" altitudeIsAgl="TRUE" snapToGround="TRUE" snapToNormal="FALSE">
		<LibraryObject name="{19E42488-18E0-4CC0-B895-A5503156FC24}" scale="1.000000"/>
	</SceneryObject>
	<!--SceneryObject name: Toolbox_Small-->
	<SceneryObject lat="47.52428836399360" lon="9.00019027028770" alt="0.00000000000000" pitch="0.000000" bank="0.000000" heading="-111.000000" imageComplexity="VERY_SPARSE" altitudeIsAgl="TRUE" snapToGround="TRUE" snapToNormal="FALSE">
		<LibraryObject name="{83379B65-2D74-4356-A133-28964F10D191}" scale="1.200000"/>
	</SceneryObject>
	<SceneryObject lat="47.52387694444066" lon="8.99978361111111" alt="0.00000000000000" pitch="0.000041" bank="-0.000041" heading="-0.000034" imageComplexity="VERY_SPARSE" altitudeIsAgl="TRUE" snapToGround="TRUE" snapToNormal="FALSE">
		<Windsock poleHeight="4.572000" sockLength="2.743200" lighted="FALSE"/>
	</SceneryObject>
	<SceneryObject lat="47.52561499999623" lon="9.00726277777778" alt="0.00000000000000" pitch="0.000041" bank="-0.000041" heading="-0.000034" imageComplexity="VERY_SPARSE" altitudeIsAgl="TRUE" snapToGround="TRUE" snapToNormal="FALSE">
		<Windsock poleHeight="4.572000" sockLength="2.743200" lighted="FALSE"/>
	</SceneryObject>
	<!--SceneryObject name: boundary1-->
	<SceneryObject lat="47.52291913691626" lon="8.99926606483358" alt="0.00000000000000" pitch="0.000041" bank="-0.000041" heading="153.599999" imageComplexity="VERY_SPARSE" altitudeIsAgl="TRUE" snapToGround="TRUE" snapToNormal="FALSE">
		<LibraryObject name="{960B3810-06C2-432B-9094-BFD864FFBE4E}" scale="1.000000"/>
	</SceneryObject>
	<!--SceneryObject name: boundary1-->
	<SceneryObject lat="47.52293135913849" lon="8.99923106483358" alt="0.00000000000000" pitch="0.000055" bank="-0.000055" heading="63.600051" imageComplexity="VERY_SPARSE" altitudeIsAgl="TRUE" snapToGround="TRUE" snapToNormal="FALSE">
		<LibraryObject name="{960B3810-06C2-432B-9094-BFD864FFBE4E}" scale="1.000000"/>
	</SceneryObject>
	<!--SceneryObject name: boundary1-->
	<SceneryObject lat="47.52341527777401" lon="8.99900833333333" alt="0.00000000000000" pitch="0.000055" bank="-0.000055" heading="63.600051" imageComplexity="VERY_SPARSE" altitudeIsAgl="TRUE" snapToGround="TRUE" snapToNormal="FALSE">
		<LibraryObject name="{960B3810-06C2-432B-9094-BFD864FFBE4E}" scale="1.000000"/>
	</SceneryObject>
	<!--SceneryObject name: boundary1-->
	<SceneryObject lat="47.52344138888515" lon="8.99902166666667" alt="0.00000000000000" pitch="0.000041" bank="-0.000041" heading="153.599999" imageComplexity="VERY_SPARSE" altitudeIsAgl="TRUE" snapToGround="TRUE" snapToNormal="FALSE">
		<LibraryObject name="{960B3810-06C2-432B-9094-BFD864FFBE4E}" scale="1.000000"/>
	</SceneryObject>
	<!--SceneryObject name: boundary1-->
	<SceneryObject lat="47.52591999999621" lon="9.00796444444445" alt="0.00000000000000" pitch="0.000738" bank="-0.000738" heading="146.690006" imageComplexity="VERY_SPARSE" altitudeIsAgl="TRUE" snapToGround="TRUE" snapToNormal="FALSE">
		<LibraryObject name="{960B3810-06C2-432B-9094-BFD864FFBE4E}" scale="1.000000"/>
	</SceneryObject>
	<!--SceneryObject name: boundary1-->
	<SceneryObject lat="47.52594083332959" lon="9.00798333333333" alt="0.00000000000000" pitch="0.000055" bank="-0.000055" heading="63.600051" imageComplexity="VERY_SPARSE" altitudeIsAgl="TRUE" snapToGround="TRUE" snapToNormal="FALSE">
		<LibraryObject name="{960B3810-06C2-432B-9094-BFD864FFBE4E}" scale="1.000000"/>
	</SceneryObject>
	<!--SceneryObject name: boundary1-->
	<SceneryObject lat="47.52639194444066" lon="9.00774805555556" alt="0.00000000000000" pitch="0.000055" bank="-0.000055" heading="63.600051" imageComplexity="VERY_SPARSE" altitudeIsAgl="TRUE" snapToGround="TRUE" snapToNormal="FALSE">
		<LibraryObject name="{960B3810-06C2-432B-9094-BFD864FFBE4E}" scale="1.000000"/>
	</SceneryObject>
	<!--SceneryObject name: boundary1-->
	<SceneryObject lat="47.52639388888511" lon="9.00771638888889" alt="0.00000000000000" pitch="0.000041" bank="-0.000041" heading="153.599999" imageComplexity="VERY_SPARSE" altitudeIsAgl="TRUE" snapToGround="TRUE" snapToNormal="FALSE">
		<LibraryObject name="{960B3810-06C2-432B-9094-BFD864FFBE4E}" scale="1.000000"/>
	</SceneryObject>
	<!--SceneryObject name: marker2_blue-->
	<SceneryObject lat="47.52353416666288" lon="8.99940527777778" alt="0.00000000000000" pitch="0.000041" bank="-0.000041" heading="63.600051" imageComplexity="VERY_SPARSE" altitudeIsAgl="TRUE" snapToGround="TRUE" snapToNormal="FALSE">
		<LibraryObject name="{06DEA177-373B-4167-BD91-B20C59310071}" scale="1.000000"/>
	</SceneryObject>
	<!--SceneryObject name: marker2_blue-->
	<SceneryObject lat="47.52360777777402" lon="8.99963444444445" alt="0.00000000000000" pitch="0.000041" bank="-0.000041" heading="63.600051" imageComplexity="VERY_SPARSE" altitudeIsAgl="TRUE" snapToGround="TRUE" snapToNormal="FALSE">
		<LibraryObject name="{06DEA177-373B-4167-BD91-B20C59310071}" scale="1.000000"/>
	</SceneryObject>
	<!--SceneryObject name: marker2_blue-->
	<SceneryObject lat="47.52365351776802" lon="8.99936903778327" alt="0.00000000000000" pitch="0.000014" bank="-0.000014" heading="63.600017" imageComplexity="VERY_SPARSE" altitudeIsAgl="TRUE" snapToGround="TRUE" snapToNormal="FALSE">
		<LibraryObject name="{06DEA177-373B-4167-BD91-B20C59310071}" scale="1.000000"/>
	</SceneryObject>
	<!--SceneryObject name: marker2_blue-->
	<SceneryObject lat="47.52368527777400" lon="8.99987055555556" alt="0.00000000000000" pitch="0.000041" bank="-0.000041" heading="63.600051" imageComplexity="VERY_SPARSE" altitudeIsAgl="TRUE" snapToGround="TRUE" snapToNormal="FALSE">
		<LibraryObject name="{06DEA177-373B-4167-BD91-B20C59310071}" scale="1.000000"/>
	</SceneryObject>
	<!--SceneryObject name: marker2_blue-->
	<SceneryObject lat="47.52374729202597" lon="8.99959945503954" alt="0.00000000000000" pitch="0.000014" bank="-0.000014" heading="63.600017" imageComplexity="VERY_SPARSE" altitudeIsAgl="TRUE" snapToGround="TRUE" snapToNormal="FALSE">
		<LibraryObject name="{06DEA177-373B-4167-BD91-B20C59310071}" scale="1.000000"/>
	</SceneryObject>
	<!--SceneryObject name: marker2_blue-->
	<SceneryObject lat="47.52381368756502" lon="8.99984489979868" alt="0.00000000000000" pitch="0.000014" bank="-0.000014" heading="63.600017" imageComplexity="VERY_SPARSE" altitudeIsAgl="TRUE" snapToGround="TRUE" snapToNormal="FALSE">
		<LibraryObject name="{06DEA177-373B-4167-BD91-B20C59310071}" scale="1.000000"/>
	</SceneryObject>
	<!--SceneryObject name: marker2_blue-->
	<SceneryObject lat="47.52430304586228" lon="9.00176021048295" alt="0.00000000000000" pitch="0.000014" bank="-0.000014" heading="63.600017" imageComplexity="VERY_SPARSE" altitudeIsAgl="TRUE" snapToGround="TRUE" snapToNormal="FALSE">
		<LibraryObject name="{06DEA177-373B-4167-BD91-B20C59310071}" scale="1.000000"/>
	</SceneryObject>
	<!--SceneryObject name: marker2_blue-->
	<SceneryObject lat="47.52440764534253" lon="9.00168346331663" alt="0.00000000000000" pitch="0.000014" bank="-0.000014" heading="63.600017" imageComplexity="VERY_SPARSE" altitudeIsAgl="TRUE" snapToGround="TRUE" snapToNormal="FALSE">
		<LibraryObject name="{06DEA177-373B-4167-BD91-B20C59310071}" scale="1.000000"/>
	</SceneryObject>
	<!--SceneryObject name: marker2_blue-->
	<SceneryObject lat="47.52453888888512" lon="9.00248305555555" alt="0.00000000000000" pitch="0.000041" bank="-0.000041" heading="63.600051" imageComplexity="VERY_SPARSE" altitudeIsAgl="TRUE" snapToGround="TRUE" snapToNormal="FALSE">
		<LibraryObject name="{06DEA177-373B-4167-BD91-B20C59310071}" scale="1.000000"/>
	</SceneryObject>
	<!--SceneryObject name: marker2_blue-->
	<SceneryObject lat="47.52464444444067" lon="9.00240555555555" alt="0.00000000000000" pitch="0.000041" bank="-0.000041" heading="63.600051" imageComplexity="VERY_SPARSE" altitudeIsAgl="TRUE" snapToGround="TRUE" snapToNormal="FALSE">
		<LibraryObject name="{06DEA177-373B-4167-BD91-B20C59310071}" scale="1.000000"/>
	</SceneryObject>
	<!--SceneryObject name: marker2_blue-->
	<SceneryObject lat="47.52475166666292" lon="9.00310805555556" alt="0.00000000000000" pitch="0.000041" bank="-0.000041" heading="63.600051" imageComplexity="VERY_SPARSE" altitudeIsAgl="TRUE" snapToGround="TRUE" snapToNormal="FALSE">
		<LibraryObject name="{06DEA177-373B-4167-BD91-B20C59310071}" scale="1.000000"/>
	</SceneryObject>
	<!--SceneryObject name: marker2_blue-->
	<SceneryObject lat="47.52485916666286" lon="9.00302472222223" alt="0.00000000000000" pitch="0.000041" bank="-0.000041" heading="63.600051" imageComplexity="VERY_SPARSE" altitudeIsAgl="TRUE" snapToGround="TRUE" snapToNormal="FALSE">
		<LibraryObject name="{06DEA177-373B-4167-BD91-B20C59310071}" scale="1.000000"/>
	</SceneryObject>
	<!--SceneryObject name: marker2_blue-->
	<SceneryObject lat="47.52494833332956" lon="9.00368222222222" alt="0.00000000000000" pitch="0.000041" bank="-0.000041" heading="63.600051" imageComplexity="VERY_SPARSE" altitudeIsAgl="TRUE" snapToGround="TRUE" snapToNormal="FALSE">
		<LibraryObject name="{06DEA177-373B-4167-BD91-B20C59310071}" scale="1.000000"/>
	</SceneryObject>
	<!--SceneryObject name: marker2_blue-->
	<SceneryObject lat="47.52504416666290" lon="9.00360666666666" alt="0.00000000000000" pitch="0.000041" bank="-0.000041" heading="63.600051" imageComplexity="VERY_SPARSE" altitudeIsAgl="TRUE" snapToGround="TRUE" snapToNormal="FALSE">
		<LibraryObject name="{06DEA177-373B-4167-BD91-B20C59310071}" scale="1.000000"/>
	</SceneryObject>
	<!--SceneryObject name: marker2_blue-->
	<SceneryObject lat="47.52514722221845" lon="9.00427500000000" alt="0.00000000000000" pitch="0.000041" bank="-0.000041" heading="63.600051" imageComplexity="VERY_SPARSE" altitudeIsAgl="TRUE" snapToGround="TRUE" snapToNormal="FALSE">
		<LibraryObject name="{06DEA177-373B-4167-BD91-B20C59310071}" scale="1.000000"/>
	</SceneryObject>
	<!--SceneryObject name: marker2_blue-->
	<SceneryObject lat="47.52524305555179" lon="9.00419694444444" alt="0.00000000000000" pitch="0.000041" bank="-0.000041" heading="63.600051" imageComplexity="VERY_SPARSE" altitudeIsAgl="TRUE" snapToGround="TRUE" snapToNormal="FALSE">
		<LibraryObject name="{06DEA177-373B-4167-BD91-B20C59310071}" scale="1.000000"/>
	</SceneryObject>
	<!--SceneryObject name: marker2_blue-->
	<SceneryObject lat="47.52535305555176" lon="9.00487694444444" alt="0.00000000000000" pitch="0.000041" bank="-0.000041" heading="63.600051" imageComplexity="VERY_SPARSE" altitudeIsAgl="TRUE" snapToGround="TRUE" snapToNormal="FALSE">
		<LibraryObject name="{06DEA177-373B-4167-BD91-B20C59310071}" scale="1.000000"/>
	</SceneryObject>
	<!--SceneryObject name: marker2_blue-->
	<SceneryObject lat="47.52544805555174" lon="9.00480861111111" alt="0.00000000000000" pitch="0.000041" bank="-0.000041" heading="63.600051" imageComplexity="VERY_SPARSE" altitudeIsAgl="TRUE" snapToGround="TRUE" snapToNormal="FALSE">
		<LibraryObject name="{06DEA177-373B-4167-BD91-B20C59310071}" scale="1.000000"/>
	</SceneryObject>
	<!--SceneryObject name: marker2_blue-->
	<SceneryObject lat="47.52555361110731" lon="9.00547527777778" alt="0.00000000000000" pitch="0.000041" bank="-0.000041" heading="63.600051" imageComplexity="VERY_SPARSE" altitudeIsAgl="TRUE" snapToGround="TRUE" snapToNormal="FALSE">
		<LibraryObject name="{06DEA177-373B-4167-BD91-B20C59310071}" scale="1.000000"/>
	</SceneryObject>
	<!--SceneryObject name: marker2_blue-->
	<SceneryObject lat="47.52564472221846" lon="9.00540527777778" alt="0.00000000000000" pitch="0.000041" bank="-0.000041" heading="63.600051" imageComplexity="VERY_SPARSE" altitudeIsAgl="TRUE" snapToGround="TRUE" snapToNormal="FALSE">
		<LibraryObject name="{06DEA177-373B-4167-BD91-B20C59310071}" scale="1.000000"/>
	</SceneryObject>
	<!--SceneryObject name: marker2_blue-->
	<SceneryObject lat="47.52572055555175" lon="9.00596472222222" alt="0.00000000000000" pitch="0.000041" bank="-0.000041" heading="63.600051" imageComplexity="VERY_SPARSE" altitudeIsAgl="TRUE" snapToGround="TRUE" snapToNormal="FALSE">
		<LibraryObject name="{06DEA177-373B-4167-BD91-B20C59310071}" scale="1.000000"/>
	</SceneryObject>
	<!--SceneryObject name: marker2_blue-->
	<SceneryObject lat="47.52581749999620" lon="9.00590833333333" alt="0.00000000000000" pitch="0.000041" bank="-0.000041" heading="63.600051" imageComplexity="VERY_SPARSE" altitudeIsAgl="TRUE" snapToGround="TRUE" snapToNormal="FALSE">
		<LibraryObject name="{06DEA177-373B-4167-BD91-B20C59310071}" scale="1.000000"/>
	</SceneryObject>
	<!--SceneryObject name: marker2_blue-->
	<SceneryObject lat="47.52595527777399" lon="9.00667000000000" alt="0.00000000000000" pitch="0.000041" bank="-0.000041" heading="63.600051" imageComplexity="VERY_SPARSE" altitudeIsAgl="TRUE" snapToGround="TRUE" snapToNormal="FALSE">
		<LibraryObject name="{06DEA177-373B-4167-BD91-B20C59310071}" scale="1.000000"/>
	</SceneryObject>
	<!--SceneryObject name: marker2_blue-->
	<SceneryObject displayName="marker2_blue (copy)" lat="47.52605166666292" lon="9.00660361111111" alt="0.00000000000000" pitch="0.000068" bank="-0.000068" heading="63.600051" imageComplexity="VERY_SPARSE" altitudeIsAgl="TRUE" snapToGround="TRUE" snapToNormal="FALSE">
		<LibraryObject name="{06DEA177-373B-4167-BD91-B20C59310071}" scale="1.000000"/>
	</SceneryObject>
	<!--SceneryObject name: marker2_orange-->
	<SceneryObject lat="47.52339632951901" lon="9.00037135568387" alt="0.00000000000000" pitch="0.000014" bank="-0.000014" heading="63.600017" imageComplexity="VERY_SPARSE" altitudeIsAgl="TRUE" snapToGround="TRUE" snapToNormal="FALSE">
		<LibraryObject name="{7A47B9E2-92FB-4BC8-946E-E407F97C45D4}" scale="1.000000"/>
	</SceneryObject>
	<!--SceneryObject name: marker2_orange-->
	<SceneryObject lat="47.52340209661644" lon="9.00036695613426" alt="0.00000000000000" pitch="0.000014" bank="-0.000014" heading="63.600017" imageComplexity="VERY_SPARSE" altitudeIsAgl="TRUE" snapToGround="TRUE" snapToNormal="FALSE">
		<LibraryObject name="{7A47B9E2-92FB-4BC8-946E-E407F97C45D4}" scale="1.000000"/>
	</SceneryObject>
	<!--SceneryObject name: marker2_orange-->
	<SceneryObject lat="47.52355664109469" lon="9.00081276152778" alt="0.00000000000000" pitch="0.000014" bank="-0.000014" heading="63.600017" imageComplexity="VERY_SPARSE" altitudeIsAgl="TRUE" snapToGround="TRUE" snapToNormal="FALSE">
		<LibraryObject name="{7A47B9E2-92FB-4BC8-946E-E407F97C45D4}" scale="1.000000"/>
	</SceneryObject>
	<!--SceneryObject name: marker2_orange-->
	<SceneryObject lat="47.52367357636612" lon="9.00016780205457" alt="0.00000000000000" pitch="0.000014" bank="-0.000014" heading="63.600017" imageComplexity="VERY_SPARSE" altitudeIsAgl="TRUE" snapToGround="TRUE" snapToNormal="FALSE">
		<LibraryObject name="{7A47B9E2-92FB-4BC8-946E-E407F97C45D4}" scale="1.000000"/>
	</SceneryObject>
	<!--SceneryObject name: marker2_orange-->
	<SceneryObject lat="47.52367933961919" lon="9.00016351146613" alt="0.00000000000000" pitch="0.000014" bank="-0.000014" heading="63.600017" imageComplexity="VERY_SPARSE" altitudeIsAgl="TRUE" snapToGround="TRUE" snapToNormal="FALSE">
		<LibraryObject name="{7A47B9E2-92FB-4BC8-946E-E407F97C45D4}" scale="1.000000"/>
	</SceneryObject>
	<!--SceneryObject name: marker2_orange-->
	<SceneryObject lat="47.52370625811140" lon="9.00125012870854" alt="0.00000000000000" pitch="0.000014" bank="-0.000014" heading="63.600017" imageComplexity="VERY_SPARSE" altitudeIsAgl="TRUE" snapToGround="TRUE" snapToNormal="FALSE">
		<LibraryObject name="{7A47B9E2-92FB-4BC8-946E-E407F97C45D4}" scale="1.000000"/>
	</SceneryObject>
	<!--SceneryObject name: marker2_orange-->
	<SceneryObject lat="47.52382162386267" lon="9.00062177626877" alt="0.00000000000000" pitch="0.000014" bank="-0.000014" heading="63.600017" imageComplexity="VERY_SPARSE" altitudeIsAgl="TRUE" snapToGround="TRUE" snapToNormal="FALSE">
		<LibraryObject name="{7A47B9E2-92FB-4BC8-946E-E407F97C45D4}" scale="1.000000"/>
	</SceneryObject>
	<!--SceneryObject name: marker2_orange-->
	<SceneryObject lat="47.52396972023443" lon="9.00105995018754" alt="0.00000000000000" pitch="0.000014" bank="-0.000014" heading="63.600017" imageComplexity="VERY_SPARSE" altitudeIsAgl="TRUE" snapToGround="TRUE" snapToNormal="FALSE">
		<LibraryObject name="{7A47B9E2-92FB-4BC8-946E-E407F97C45D4}" scale="1.000000"/>
	</SceneryObject>
	<!--SceneryObject name: marker2_orange-->
	<SceneryObject lat="47.52400872626508" lon="9.00215079630179" alt="0.00000000000000" pitch="0.000014" bank="-0.000014" heading="63.600017" imageComplexity="VERY_SPARSE" altitudeIsAgl="TRUE" snapToGround="TRUE" snapToNormal="FALSE">
		<LibraryObject name="{7A47B9E2-92FB-4BC8-946E-E407F97C45D4}" scale="1.000000"/>
	</SceneryObject>
	<!--SceneryObject name: marker2_orange-->
	<SceneryObject lat="47.52426936967920" lon="9.00195382332748" alt="0.00000000000000" pitch="0.000014" bank="-0.000014" heading="63.600017" imageComplexity="VERY_SPARSE" altitudeIsAgl="TRUE" snapToGround="TRUE" snapToNormal="FALSE">
		<LibraryObject name="{7A47B9E2-92FB-4BC8-946E-E407F97C45D4}" scale="1.000000"/>
	</SceneryObject>
	<!--SceneryObject name: marker2_orange-->
	<SceneryObject lat="47.52500927752339" lon="9.00513923909772" alt="0.00000000000000" pitch="0.000014" bank="-0.000014" heading="63.600017" imageComplexity="VERY_SPARSE" altitudeIsAgl="TRUE" snapToGround="TRUE" snapToNormal="FALSE">
		<LibraryObject name="{7A47B9E2-92FB-4BC8-946E-E407F97C45D4}" scale="1.000000"/>
	</SceneryObject>
	<!--SceneryObject name: marker2_orange-->
	<SceneryObject lat="47.52516591285639" lon="9.00558081743839" alt="0.00000000000000" pitch="0.000014" bank="-0.000014" heading="63.600017" imageComplexity="VERY_SPARSE" altitudeIsAgl="TRUE" snapToGround="TRUE" snapToNormal="FALSE">
		<LibraryObject name="{7A47B9E2-92FB-4BC8-946E-E407F97C45D4}" scale="1.000000"/>
	</SceneryObject>
	<!--SceneryObject name: marker2_orange-->
	<SceneryObject lat="47.52528021999482" lon="9.00496033680847" alt="0.00000000000000" pitch="0.000014" bank="-0.000014" heading="63.600017" imageComplexity="VERY_SPARSE" altitudeIsAgl="TRUE" snapToGround="TRUE" snapToNormal="FALSE">
		<LibraryObject name="{7A47B9E2-92FB-4BC8-946E-E407F97C45D4}" scale="1.000000"/>
	</SceneryObject>
	<!--SceneryObject name: marker2_orange-->
	<SceneryObject lat="47.52531490971098" lon="9.00602528609721" alt="0.00000000000000" pitch="0.000014" bank="-0.000014" heading="63.600017" imageComplexity="VERY_SPARSE" altitudeIsAgl="TRUE" snapToGround="TRUE" snapToNormal="FALSE">
		<LibraryObject name="{7A47B9E2-92FB-4BC8-946E-E407F97C45D4}" scale="1.000000"/>
	</SceneryObject>
	<!--SceneryObject name: marker2_orange-->
	<SceneryObject lat="47.52543094095370" lon="9.00541698535627" alt="0.00000000000000" pitch="0.000014" bank="-0.000014" heading="63.600017" imageComplexity="VERY_SPARSE" altitudeIsAgl="TRUE" snapToGround="TRUE" snapToNormal="FALSE">
		<LibraryObject name="{7A47B9E2-92FB-4BC8-946E-E407F97C45D4}" scale="1.000000"/>
	</SceneryObject>
	<!--SceneryObject name: marker2_orange-->
	<SceneryObject lat="47.52546862285282" lon="9.00647616270952" alt="0.00000000000000" pitch="0.000014" bank="-0.000014" heading="63.600017" imageComplexity="VERY_SPARSE" altitudeIsAgl="TRUE" snapToGround="TRUE" snapToNormal="FALSE">
		<LibraryObject name="{7A47B9E2-92FB-4BC8-946E-E407F97C45D4}" scale="1.000000"/>
	</SceneryObject>
	<!--SceneryObject name: marker2_orange-->
	<SceneryObject lat="47.52557738814890" lon="9.00584655295771" alt="0.00000000000000" pitch="0.000014" bank="-0.000014" heading="63.600017" imageComplexity="VERY_SPARSE" altitudeIsAgl="TRUE" snapToGround="TRUE" snapToNormal="FALSE">
		<LibraryObject name="{7A47B9E2-92FB-4BC8-946E-E407F97C45D4}" scale="1.000000"/>
	</SceneryObject>
	<!--SceneryObject name: marker2_orange-->
	<SceneryObject lat="47.52561423827829" lon="9.00691140753412" alt="0.00000000000000" pitch="0.000014" bank="-0.000014" heading="63.600017" imageComplexity="VERY_SPARSE" altitudeIsAgl="TRUE" snapToGround="TRUE" snapToNormal="FALSE">
		<LibraryObject name="{7A47B9E2-92FB-4BC8-946E-E407F97C45D4}" scale="1.000000"/>
	</SceneryObject>
	<!--SceneryObject name: marker2_orange-->
	<SceneryObject lat="47.52572365526667" lon="9.00627452887490" alt="0.00000000000000" pitch="0.000014" bank="-0.000014" heading="63.600017" imageComplexity="VERY_SPARSE" altitudeIsAgl="TRUE" snapToGround="TRUE" snapToNormal="FALSE">
		<LibraryObject name="{7A47B9E2-92FB-4BC8-946E-E407F97C45D4}" scale="1.000000"/>
	</SceneryObject>
	<!--SceneryObject name: marker2_orange-->
	<SceneryObject lat="47.52587384331224" lon="9.00671643788855" alt="0.00000000000000" pitch="0.000014" bank="-0.000014" heading="63.600017" imageComplexity="VERY_SPARSE" altitudeIsAgl="TRUE" snapToGround="TRUE" snapToNormal="FALSE">
		<LibraryObject name="{7A47B9E2-92FB-4BC8-946E-E407F97C45D4}" scale="1.000000"/>
	</SceneryObject>
	<!--SceneryObject name: marker2_white-->
	<SceneryObject lat="47.52315623943174" lon="8.99960061767289" alt="0.00000000000000" pitch="0.003039" bank="-0.003039" heading="63.600017" imageComplexity="VERY_SPARSE" altitudeIsAgl="TRUE" snapToGround="TRUE" snapToNormal="FALSE">
		<LibraryObject name="{5870238E-081D-449F-993C-A338EC22B624}" scale="1.000000"/>
	</SceneryObject>
	<!--SceneryObject name: marker2_white-->
	<SceneryObject lat="47.52340524205179" lon="8.99941618709813" alt="0.00000000000000" pitch="0.003039" bank="-0.003039" heading="63.600017" imageComplexity="VERY_SPARSE" altitudeIsAgl="TRUE" snapToGround="TRUE" snapToNormal="FALSE">
		<LibraryObject name="{5870238E-081D-449F-993C-A338EC22B624}" scale="1.000000"/>
	</SceneryObject>
	<!--SceneryObject name: marker2_white-->
	<SceneryObject lat="47.52340785594647" lon="9.00036264126322" alt="0.00000000000000" pitch="0.003039" bank="-0.003039" heading="63.600017" imageComplexity="VERY_SPARSE" altitudeIsAgl="TRUE" snapToGround="TRUE" snapToNormal="FALSE">
		<LibraryObject name="{5870238E-081D-449F-993C-A338EC22B624}" scale="1.000000"/>
	</SceneryObject>
	<!--SceneryObject name: marker2_white-->
	<SceneryObject lat="47.52341362873378" lon="9.00035852960461" alt="0.00000000000000" pitch="0.003039" bank="-0.003039" heading="63.600017" imageComplexity="VERY_SPARSE" altitudeIsAgl="TRUE" snapToGround="TRUE" snapToNormal="FALSE">
		<LibraryObject name="{5870238E-081D-449F-993C-A338EC22B624}" scale="1.000000"/>
	</SceneryObject>
	<!--SceneryObject name: marker2_white-->
	<SceneryObject lat="47.52356277777402" lon="9.00080750000000" alt="0.00000000000000" pitch="0.003039" bank="-0.003039" heading="63.600051" imageComplexity="VERY_SPARSE" altitudeIsAgl="TRUE" snapToGround="TRUE" snapToNormal="FALSE">
		<LibraryObject name="{5870238E-081D-449F-993C-A338EC22B624}" scale="1.000000"/>
	</SceneryObject>
	<!--SceneryObject name: marker2_white-->
	<SceneryObject lat="47.52366206149659" lon="9.00017654737925" alt="0.00000000000000" pitch="0.003039" bank="-0.003039" heading="63.600017" imageComplexity="VERY_SPARSE" altitudeIsAgl="TRUE" snapToGround="TRUE" snapToNormal="FALSE">
		<LibraryObject name="{5870238E-081D-449F-993C-A338EC22B624}" scale="1.000000"/>
	</SceneryObject>
	<!--SceneryObject name: marker2_white-->
	<SceneryObject lat="47.52366776540702" lon="9.00017212656727" alt="0.00000000000000" pitch="0.003039" bank="-0.003039" heading="63.600017" imageComplexity="VERY_SPARSE" altitudeIsAgl="TRUE" snapToGround="TRUE" snapToNormal="FALSE">
		<LibraryObject name="{5870238E-081D-449F-993C-A338EC22B624}" scale="1.000000"/>
	</SceneryObject>
	<!--SceneryObject name: marker2_white-->
	<SceneryObject lat="47.52371194444070" lon="9.00124583333333" alt="0.00000000000000" pitch="0.003039" bank="-0.003039" heading="63.600051" imageComplexity="VERY_SPARSE" altitudeIsAgl="TRUE" snapToGround="TRUE" snapToNormal="FALSE">
		<LibraryObject name="{5870238E-081D-449F-993C-A338EC22B624}" scale="1.000000"/>
	</SceneryObject>
	<!--SceneryObject name: marker2_white-->
	<SceneryObject lat="47.52381583332954" lon="9.00062611111111" alt="0.00000000000000" pitch="0.003039" bank="-0.003039" heading="63.600051" imageComplexity="VERY_SPARSE" altitudeIsAgl="TRUE" snapToGround="TRUE" snapToNormal="FALSE">
		<LibraryObject name="{5870238E-081D-449F-993C-A338EC22B624}" scale="1.000000"/>
	</SceneryObject>
	<!--SceneryObject name: marker2_white-->
	<SceneryObject lat="47.52396388888512" lon="9.00106444444445" alt="0.00000000000000" pitch="0.003039" bank="-0.003039" heading="63.600051" imageComplexity="VERY_SPARSE" altitudeIsAgl="TRUE" snapToGround="TRUE" snapToNormal="FALSE">
		<LibraryObject name="{5870238E-081D-449F-993C-A338EC22B624}" scale="1.000000"/>
	</SceneryObject>
	<!--SceneryObject name: marker2_white-->
	<SceneryObject lat="47.52401472221845" lon="9.00214694444445" alt="0.00000000000000" pitch="0.003039" bank="-0.003039" heading="63.600051" imageComplexity="VERY_SPARSE" altitudeIsAgl="TRUE" snapToGround="TRUE" snapToNormal="FALSE">
		<LibraryObject name="{5870238E-081D-449F-993C-A338EC22B624}" scale="1.000000"/>
	</SceneryObject>
	<!--SceneryObject name: marker2_white-->
	<SceneryObject lat="47.52414958974033" lon="9.00252669296056" alt="0.00000000000000" pitch="0.003039" bank="-0.003039" heading="63.600017" imageComplexity="VERY_SPARSE" altitudeIsAgl="TRUE" snapToGround="TRUE" snapToNormal="FALSE">
		<LibraryObject name="{5870238E-081D-449F-993C-A338EC22B624}" scale="1.000000"/>
	</SceneryObject>
	<!--SceneryObject name: marker2_white-->
	<SceneryObject lat="47.52426333332957" lon="9.00195833333333" alt="0.00000000000000" pitch="0.003039" bank="-0.003039" heading="63.600051" imageComplexity="VERY_SPARSE" altitudeIsAgl="TRUE" snapToGround="TRUE" snapToNormal="FALSE">
		<LibraryObject name="{5870238E-081D-449F-993C-A338EC22B624}" scale="1.000000"/>
	</SceneryObject>
	<!--SceneryObject name: marker2_white-->
	<SceneryObject lat="47.52432451975326" lon="9.00304708165305" alt="0.00000000000000" pitch="0.003039" bank="-0.003039" heading="63.600017" imageComplexity="VERY_SPARSE" altitudeIsAgl="TRUE" snapToGround="TRUE" snapToNormal="FALSE">
		<LibraryObject name="{5870238E-081D-449F-993C-A338EC22B624}" scale="1.000000"/>
	</SceneryObject>
	<!--SceneryObject name: marker2_white-->
	<SceneryObject lat="47.52439685748899" lon="9.00234523037093" alt="0.00000000000000" pitch="0.003039" bank="-0.003039" heading="63.600017" imageComplexity="VERY_SPARSE" altitudeIsAgl="TRUE" snapToGround="TRUE" snapToNormal="FALSE">
		<LibraryObject name="{5870238E-081D-449F-993C-A338EC22B624}" scale="1.000000"/>
	</SceneryObject>
	<!--SceneryObject name: marker2_white-->
	<SceneryObject lat="47.52449986765414" lon="9.00356872253864" alt="0.00000000000000" pitch="0.003039" bank="-0.003039" heading="63.600017" imageComplexity="VERY_SPARSE" altitudeIsAgl="TRUE" snapToGround="TRUE" snapToNormal="FALSE">
		<LibraryObject name="{5870238E-081D-449F-993C-A338EC22B624}" scale="1.000000"/>
	</SceneryObject>
	<!--SceneryObject name: marker2_white-->
	<SceneryObject lat="47.52457194067092" lon="9.00286486735214" alt="0.00000000000000" pitch="0.003039" bank="-0.003039" heading="63.600017" imageComplexity="VERY_SPARSE" altitudeIsAgl="TRUE" snapToGround="TRUE" snapToNormal="FALSE">
		<LibraryObject name="{5870238E-081D-449F-993C-A338EC22B624}" scale="1.000000"/>
	</SceneryObject>
	<!--SceneryObject name: marker2_white-->
	<SceneryObject lat="47.52462027777403" lon="9.00393916666667" alt="0.00000000000000" pitch="0.003039" bank="-0.003039" heading="63.600051" imageComplexity="VERY_SPARSE" altitudeIsAgl="TRUE" snapToGround="TRUE" snapToNormal="FALSE">
		<LibraryObject name="{5870238E-081D-449F-993C-A338EC22B624}" scale="1.000000"/>
	</SceneryObject>
	<!--SceneryObject name: marker2_white-->
	<SceneryObject lat="47.52474756254371" lon="9.00338773885264" alt="0.00000000000000" pitch="0.003039" bank="-0.003039" heading="63.600017" imageComplexity="VERY_SPARSE" altitudeIsAgl="TRUE" snapToGround="TRUE" snapToNormal="FALSE">
		<LibraryObject name="{5870238E-081D-449F-993C-A338EC22B624}" scale="1.000000"/>
	</SceneryObject>
	<!--SceneryObject name: marker2_white-->
	<SceneryObject lat="47.52481722221844" lon="9.00452750000000" alt="0.00000000000000" pitch="0.003039" bank="-0.003039" heading="63.600051" imageComplexity="VERY_SPARSE" altitudeIsAgl="TRUE" snapToGround="TRUE" snapToNormal="FALSE">
		<LibraryObject name="{5870238E-081D-449F-993C-A338EC22B624}" scale="1.000000"/>
	</SceneryObject>
	<!--SceneryObject name: marker2_white-->
	<SceneryObject lat="47.52486999999623" lon="9.00377555555555" alt="0.00000000000000" pitch="0.003039" bank="-0.003039" heading="63.600051" imageComplexity="VERY_SPARSE" altitudeIsAgl="TRUE" snapToGround="TRUE" snapToNormal="FALSE">
		<LibraryObject name="{5870238E-081D-449F-993C-A338EC22B624}" scale="1.000000"/>
	</SceneryObject>
	<!--SceneryObject name: marker2_white-->
	<SceneryObject lat="47.52501499999623" lon="9.00513472222222" alt="0.00000000000000" pitch="0.003039" bank="-0.003039" heading="63.600051" imageComplexity="VERY_SPARSE" altitudeIsAgl="TRUE" snapToGround="TRUE" snapToNormal="FALSE">
		<LibraryObject name="{5870238E-081D-449F-993C-A338EC22B624}" scale="1.000000"/>
	</SceneryObject>
	<!--SceneryObject name: marker2_white-->
	<SceneryObject lat="47.52506527777400" lon="9.00435222222223" alt="0.00000000000000" pitch="0.003039" bank="-0.003039" heading="63.600051" imageComplexity="VERY_SPARSE" altitudeIsAgl="TRUE" snapToGround="TRUE" snapToNormal="FALSE">
		<LibraryObject name="{5870238E-081D-449F-993C-A338EC22B624}" scale="1.000000"/>
	</SceneryObject>
	<!--SceneryObject name: marker2_white-->
	<SceneryObject lat="47.52517166666287" lon="9.00557666666667" alt="0.00000000000000" pitch="0.003039" bank="-0.003039" heading="63.600051" imageComplexity="VERY_SPARSE" altitudeIsAgl="TRUE" snapToGround="TRUE" snapToNormal="FALSE">
		<LibraryObject name="{5870238E-081D-449F-993C-A338EC22B624}" scale="1.000000"/>
	</SceneryObject>
	<!--SceneryObject name: marker2_white-->
	<SceneryObject lat="47.52527416666285" lon="9.00496500000000" alt="0.00000000000000" pitch="0.003039" bank="-0.003039" heading="63.600051" imageComplexity="VERY_SPARSE" altitudeIsAgl="TRUE" snapToGround="TRUE" snapToNormal="FALSE">
		<LibraryObject name="{5870238E-081D-449F-993C-A338EC22B624}" scale="1.000000"/>
	</SceneryObject>
	<!--SceneryObject name: marker2_white-->
	<SceneryObject lat="47.52532083332957" lon="9.00602055555556" alt="0.00000000000000" pitch="0.003039" bank="-0.003039" heading="63.600051" imageComplexity="VERY_SPARSE" altitudeIsAgl="TRUE" snapToGround="TRUE" snapToNormal="FALSE">
		<LibraryObject name="{5870238E-081D-449F-993C-A338EC22B624}" scale="1.000000"/>
	</SceneryObject>
	<!--SceneryObject name: marker2_white-->
	<SceneryObject lat="47.52542499999625" lon="9.00542138888889" alt="0.00000000000000" pitch="0.003039" bank="-0.003039" heading="63.600051" imageComplexity="VERY_SPARSE" altitudeIsAgl="TRUE" snapToGround="TRUE" snapToNormal="FALSE">
		<LibraryObject name="{5870238E-081D-449F-993C-A338EC22B624}" scale="1.000000"/>
	</SceneryObject>
	<!--SceneryObject name: marker2_white-->
	<SceneryObject lat="47.52547472221847" lon="9.00647138888889" alt="0.00000000000000" pitch="0.003039" bank="-0.003039" heading="63.600051" imageComplexity="VERY_SPARSE" altitudeIsAgl="TRUE" snapToGround="TRUE" snapToNormal="FALSE">
		<LibraryObject name="{5870238E-081D-449F-993C-A338EC22B624}" scale="1.000000"/>
	</SceneryObject>
	<!--SceneryObject name: marker2_white-->
	<SceneryObject lat="47.52557138888508" lon="9.00585083333334" alt="0.00000000000000" pitch="0.003039" bank="-0.003039" heading="63.600051" imageComplexity="VERY_SPARSE" altitudeIsAgl="TRUE" snapToGround="TRUE" snapToNormal="FALSE">
		<LibraryObject name="{5870238E-081D-449F-993C-A338EC22B624}" scale="1.000000"/>
	</SceneryObject>
	<!--SceneryObject name: marker2_white-->
	<SceneryObject lat="47.52561997854144" lon="9.00690720784655" alt="0.00000000000000" pitch="0.003039" bank="-0.003039" heading="63.600017" imageComplexity="VERY_SPARSE" altitudeIsAgl="TRUE" snapToGround="TRUE" snapToNormal="FALSE">
		<LibraryObject name="{5870238E-081D-449F-993C-A338EC22B624}" scale="1.000000"/>
	</SceneryObject>
	<!--SceneryObject name: marker2_white-->
	<SceneryObject lat="47.52571749999623" lon="9.00627916666667" alt="0.00000000000000" pitch="0.003039" bank="-0.003039" heading="63.600051" imageComplexity="VERY_SPARSE" altitudeIsAgl="TRUE" snapToGround="TRUE" snapToNormal="FALSE">
		<LibraryObject name="{5870238E-081D-449F-993C-A338EC22B624}" scale="1.000000"/>
	</SceneryObject>
	<!--SceneryObject name: marker2_white-->
	<SceneryObject lat="47.52586809013730" lon="9.00672080702091" alt="0.00000000000000" pitch="0.003039" bank="-0.003039" heading="63.600017" imageComplexity="VERY_SPARSE" altitudeIsAgl="TRUE" snapToGround="TRUE" snapToNormal="FALSE">
		<LibraryObject name="{5870238E-081D-449F-993C-A338EC22B624}" scale="1.000000"/>
	</SceneryObject>
	<Airport region="Europe" country="Switzerland" state="Thurgau" city="Lommis" name="Lommis" ident="LSZT" lat="47.52468259283960" lon="9.00281831657460" alt="464.17226487956941" magvar="3.000000" airportTestRadius="2000.00000000000000" applyFlatten="FALSE" isOnTIN="FALSE">
		<AirportGroup displayName="Apron" groupID="1" groupIndex="8"/>
		<AirportGroup displayName="PaintedLine" groupID="2" groupIndex="9"/>
		<AirportGroup displayName="Runway" groupID="3"/>
		<AirportGroup displayName="TaxiwayParking" groupID="4" groupIndex="6"/>
		<AirportGroup displayName="TaxiwayPath" groupID="5" groupIndex="7"/>
		<AirportGroup displayName="TaxiwayPoint" groupID="6" groupIndex="5"/>
		<TaxiwayPoint parentGroupID="6" groupIndex="44" index="0" type="NORMAL" orientation="FORWARD" lat="47.52389635432269" lon="9.00012451443992"/>
		<TaxiwayPoint parentGroupID="6" groupIndex="43" index="1" type="NORMAL" orientation="FORWARD" lat="47.52406508138396" lon="9.00000397650194"/>
		<TaxiwayPoint parentGroupID="6" groupIndex="42" index="2" type="NORMAL" orientation="FORWARD" lat="47.52411571990852" lon="8.99998597418867"/>
		<TaxiwayPoint parentGroupID="6" groupIndex="41" index="3" type="NORMAL" orientation="FORWARD" lat="47.52416438349912" lon="9.00004153901750"/>
		<TaxiwayPoint parentGroupID="6" groupIndex="40" index="4" type="NORMAL" orientation="FORWARD" lat="47.52414016806669" lon="9.00013085388739"/>
		<TaxiwayPoint parentGroupID="6" groupIndex="39" index="5" type="NORMAL" orientation="FORWARD" lat="47.52420023151350" lon="9.00014564403626"/>
		<TaxiwayPoint parentGroupID="6" groupIndex="38" index="6" type="NORMAL" orientation="FORWARD" lat="47.52423605490036" lon="9.00025701718129"/>
		<TaxiwayPoint parentGroupID="6" groupIndex="30" index="7" type="NORMAL" orientation="FORWARD" lat="47.52427537040408" lon="9.00036411083231"/>
		<TaxiwayPoint parentGroupID="6" groupIndex="35" index="8" type="NORMAL" orientation="FORWARD" lat="47.52444431138095" lon="9.00085032964150"/>
		<TaxiwayPoint parentGroupID="6" groupIndex="36" index="9" type="NORMAL" orientation="FORWARD" lat="47.52447938951936" lon="9.00095054784820"/>
		<TaxiwayPoint parentGroupID="6" groupIndex="37" index="10" type="NORMAL" orientation="FORWARD" lat="47.52454086206712" lon="9.00113101802942"/>
		<TaxiwayPoint parentGroupID="6" groupIndex="47" index="11" type="NORMAL" orientation="FORWARD" lat="47.52426734589943" lon="9.00142613435501"/>
		<TaxiwayPoint parentGroupID="6" groupIndex="1" index="12" type="NORMAL" orientation="FORWARD" lat="47.52394760447164" lon="9.00053936319622"/>
		<TaxiwayPoint parentGroupID="6" index="13" type="NORMAL" orientation="FORWARD" lat="47.52420794085008" lon="9.00034681650821"/>
		<TaxiwayPoint parentGroupID="6" groupIndex="4" index="14" type="NORMAL" orientation="FORWARD" lat="47.52388330324684" lon="9.00051881368450"/>
		<TaxiwayPoint parentGroupID="6" groupIndex="5" index="15" type="NORMAL" orientation="FORWARD" lat="47.52382184719504" lon="9.00044453715430"/>
		<TaxiwayPoint parentGroupID="6" groupIndex="6" index="16" type="NORMAL" orientation="FORWARD" lat="47.52380369618348" lon="9.00029295478785"/>
		<TaxiwayPoint parentGroupID="6" groupIndex="8" index="17" type="NORMAL" orientation="FORWARD" lat="47.52377254190144" lon="8.99990767470411"/>
		<TaxiwayPoint parentGroupID="6" groupIndex="9" index="18" type="NORMAL" orientation="FORWARD" lat="47.52356176177583" lon="8.99928883150193"/>
		<TaxiwayPoint parentGroupID="6" groupIndex="10" index="19" type="NORMAL" orientation="FORWARD" lat="47.52347274888344" lon="8.99918958846945"/>
		<TaxiwayPoint parentGroupID="6" groupIndex="11" index="20" type="NORMAL" orientation="FORWARD" lat="47.52334519837579" lon="8.99914070810299"/>
		<TaxiwayPoint parentGroupID="6" groupIndex="12" index="21" type="NORMAL" orientation="FORWARD" lat="47.52322193205693" lon="8.99933640917598"/>
		<TaxiwayPoint parentGroupID="6" groupIndex="18" index="22" type="NORMAL" orientation="FORWARD" lat="47.52403183070297" lon="9.00106730729358"/>
		<TaxiwayPoint parentGroupID="6" groupIndex="20" index="23" type="NORMAL" orientation="FORWARD" lat="47.52411779893016" lon="9.00130790935051"/>
		<TaxiwayPoint parentGroupID="6" groupIndex="21" index="24" type="NORMAL" orientation="FORWARD" lat="47.52435990859344" lon="9.00173111467993"/>
		<TaxiwayPoint parentGroupID="6" groupIndex="22" index="25" type="NORMAL" orientation="FORWARD" lat="47.52628113227252" lon="9.00745327414229"/>
		<TaxiwayPoint parentGroupID="6" groupIndex="23" index="26" type="NORMAL" orientation="FORWARD" lat="47.52628107240128" lon="9.00761472837915"/>
		<TaxiwayPoint parentGroupID="6" groupIndex="24" index="27" type="NORMAL" orientation="FORWARD" lat="47.52620910307796" lon="9.00772591639170"/>
		<TaxiwayPoint parentGroupID="6" groupIndex="25" index="28" type="NORMAL" orientation="FORWARD" lat="47.52603188505056" lon="9.00765738753796"/>
		<TaxiwayPoint parentGroupID="6" groupIndex="26" index="29" type="NORMAL" orientation="FORWARD" lat="47.52391906515111" lon="9.00062097957598"/>
		<TaxiwayPoint parentGroupID="6" groupIndex="27" index="30" type="NORMAL" orientation="FORWARD" lat="47.52391377780189" lon="9.00072474831122"/>
		<TaxiwayPoint parentGroupID="6" groupIndex="17" index="31" type="NORMAL" orientation="FORWARD" lat="47.52409386621089" lon="9.00112760626288"/>
		<TaxiwayPoint parentGroupID="6" groupIndex="14" index="32" type="NORMAL" orientation="FORWARD" lat="47.52415979455151" lon="9.00111740366118"/>
		<TaxiwayPoint parentGroupID="6" groupIndex="13" index="33" type="NORMAL" orientation="FORWARD" lat="47.52441473224120" lon="9.00093421720721"/>
		<TaxiwayPoint parentGroupID="6" groupIndex="19" index="34" type="NORMAL" orientation="FORWARD" lat="47.52411694673199" lon="9.00119092019488"/>
		<TaxiwayPoint parentGroupID="6" groupIndex="28" index="35" type="NORMAL" orientation="FORWARD" lat="47.52611565581526" lon="9.00774865716745"/>
		<TaxiwayPoint parentGroupID="6" groupIndex="29" index="36" type="NORMAL" orientation="FORWARD" lat="47.52324914555355" lon="8.99920751748076"/>
		<TaxiwayPoint parentGroupID="6" groupIndex="7" index="37" type="NORMAL" orientation="FORWARD" lat="47.52383234584472" lon="9.00008871107776"/>
		<TaxiwayPoint parentGroupID="6" groupIndex="51" index="38" type="NORMAL" orientation="FORWARD" lat="47.52450185602407" lon="9.00125022083954"/>
		<TaxiwayPoint parentGroupID="6" groupIndex="49" index="39" type="NORMAL" orientation="FORWARD" lat="47.52424534340580" lon="9.00155012431930"/>
		<TaxiwayPoint parentGroupID="6" groupIndex="2" index="40" type="NORMAL" orientation="FORWARD" lat="47.52406040485381" lon="9.00046192514817"/>
		<TaxiwayPoint parentGroupID="6" groupIndex="3" index="41" type="NORMAL" orientation="FORWARD" lat="47.52415381931763" lon="9.00039020327852"/>
		<TaxiwayPoint parentGroupID="6" groupIndex="33" index="42" type="NORMAL" orientation="FORWARD" lat="47.52435984089252" lon="9.00060722023690"/>
		<TaxiwayPoint parentGroupID="6" groupIndex="32" index="43" type="NORMAL" orientation="FORWARD" lat="47.52415484420550" lon="9.00075140711324"/>
		<TaxiwayPoint parentGroupID="6" groupIndex="31" index="44" type="NORMAL" orientation="FORWARD" lat="47.52405222006907" lon="9.00082467117508"/>
		<TaxiwayPoint parentGroupID="6" groupIndex="34" index="45" type="NORMAL" orientation="FORWARD" lat="47.52426208181051" lon="9.00067700394640"/>
		<TaxiwayPoint parentGroupID="6" groupIndex="16" index="46" type="NORMAL" orientation="FORWARD" lat="47.52426257765522" lon="9.00104119299196"/>
		<TaxiwayPoint parentGroupID="6" groupIndex="45" index="47" type="NORMAL" orientation="FORWARD" lat="47.52383783374631" lon="9.00018406106491"/>
		<TaxiwayPoint parentGroupID="6" groupIndex="15" index="49" type="NORMAL" orientation="FORWARD" lat="47.52435416350162" lon="9.00097523708170"/>
		<TaxiwayPoint parentGroupID="6" groupIndex="46" index="62" type="NORMAL" orientation="FORWARD" lat="47.52396880456447" lon="9.00088635507487"/>
		<TaxiwayPoint parentGroupID="6" groupIndex="48" index="63" type="NORMAL" orientation="FORWARD" lat="47.52436899170993" lon="9.00135002834712"/>
		<TaxiwayPoint parentGroupID="6" groupIndex="50" index="70" type="NORMAL" orientation="FORWARD" lat="47.52416660753978" lon="9.00143783447300"/>
		<TaxiwayPoint parentGroupID="6" groupIndex="52" index="74" type="NORMAL" orientation="FORWARD" lat="47.52451648352290" lon="9.00157556664676"/>
		<TaxiwayPoint parentGroupID="6" groupIndex="53" index="75" type="NORMAL" orientation="FORWARD" lat="47.52460822405396" lon="9.00150982113803"/>
		<TaxiwayParking parentGroupID="4" index="48" type="RAMP_GA_SMALL" lat="47.52390160733943" lon="9.00039839398392" heading="243.599991" radius="6.000000" name="NONE" number="1" suffix="NONE" pushBack="NONE" numberMarking="FALSE" numberBiasX="0.000000" numberBiasZ="0.000000" numberHeading="0.000000"/>
		<TaxiwayParking parentGroupID="4" groupIndex="1" index="50" type="RAMP_GA_SMALL" lat="47.52400424283357" lon="9.00030509813523" heading="243.599991" radius="6.000000" name="NONE" number="2" suffix="NONE" pushBack="NONE" numberMarking="FALSE" numberBiasX="0.000000" numberBiasZ="0.000000" numberHeading="0.000000"/>
		<TaxiwayParking parentGroupID="4" groupIndex="2" index="51" type="RAMP_GA_SMALL" lat="47.52399955258687" lon="9.00067658240731" heading="243.599991" radius="6.000000" name="NONE" number="3" suffix="NONE" pushBack="NONE" numberMarking="FALSE" numberBiasX="0.000000" numberBiasZ="0.000000" numberHeading="0.000000"/>
		<TaxiwayParking parentGroupID="4" groupIndex="3" index="52" type="RAMP_GA_SMALL" lat="47.52410416246736" lon="9.00059638002464" heading="243.881119" radius="6.000000" name="NONE" number="4" suffix="NONE" pushBack="NONE" numberMarking="FALSE" numberBiasX="0.000000" numberBiasZ="0.000000" numberHeading="0.000000"/>
		<TaxiwayParking parentGroupID="4" groupIndex="4" index="53" type="RAMP_GA_SMALL" lat="47.52420937335266" lon="9.00052163007097" heading="243.599991" radius="6.000000" name="NONE" number="5" suffix="NONE" pushBack="NONE" numberMarking="FALSE" numberBiasX="0.000000" numberBiasZ="0.000000" numberHeading="0.000000"/>
		<TaxiwayParking parentGroupID="4" groupIndex="5" index="54" type="RAMP_GA_SMALL" lat="47.52409839584987" lon="9.00095868765342" heading="243.599991" radius="6.000000" name="NONE" number="6" suffix="NONE" pushBack="NONE" numberMarking="FALSE" numberBiasX="0.000000" numberBiasZ="0.000000" numberHeading="0.000000"/>
		<TaxiwayParking parentGroupID="4" groupIndex="6" index="55" type="RAMP_GA_SMALL" lat="47.52420313354690" lon="9.00087653806568" heading="243.599991" radius="6.000000" name="NONE" number="7" suffix="NONE" pushBack="NONE" numberMarking="FALSE" numberBiasX="0.000000" numberBiasZ="0.000000" numberHeading="0.000000"/>
		<TaxiwayParking parentGroupID="4" groupIndex="7" index="56" type="RAMP_GA_SMALL" lat="47.52430861381138" lon="9.00080284918575" heading="243.599991" radius="6.000000" name="NONE" number="8" suffix="NONE" pushBack="NONE" numberMarking="FALSE" numberBiasX="0.000000" numberBiasZ="0.000000" numberHeading="0.000000"/>
		<TaxiwayParking parentGroupID="4" groupIndex="8" index="57" type="RAMP_GA_SMALL" lat="47.52419810446622" lon="9.00124215311058" heading="243.599991" radius="6.000000" name="NONE" number="9" suffix="NONE" pushBack="NONE" numberMarking="FALSE" numberBiasX="0.000000" numberBiasZ="0.000000" numberHeading="0.000000"/>
		<TaxiwayParking parentGroupID="4" groupIndex="9" index="58" type="RAMP_GA_SMALL" lat="47.52430133455216" lon="9.00116393764794" heading="243.599991" radius="6.000000" name="NONE" number="10" suffix="NONE" pushBack="NONE" numberMarking="FALSE" numberBiasX="0.000000" numberBiasZ="0.000000" numberHeading="0.000000"/>
		<TaxiwayParking parentGroupID="4" groupIndex="10" index="59" type="RAMP_GA_SMALL" lat="47.52440608134485" lon="9.00108570464961" heading="243.599991" radius="6.000000" name="NONE" number="11" suffix="NONE" pushBack="NONE" numberMarking="FALSE" numberBiasX="0.000000" numberBiasZ="0.000000" numberHeading="0.000000"/>
		<TaxiwayParking parentGroupID="4" groupIndex="11" index="60" type="RAMP_GA_SMALL" lat="47.52445225622621" lon="9.00147849030260" heading="243.599991" radius="6.000000" name="NONE" number="12" suffix="NONE" pushBack="NONE" numberMarking="FALSE" numberBiasX="0.000000" numberBiasZ="0.000000" numberHeading="0.000000"/>
		<TaxiwayParking parentGroupID="4" groupIndex="12" index="61" type="RAMP_GA_SMALL" lat="47.52455651900931" lon="9.00139885566555" heading="243.599991" radius="6.000000" name="NONE" number="13" suffix="NONE" pushBack="NONE" numberMarking="FALSE" numberBiasX="0.000000" numberBiasZ="0.000000" numberHeading="0.000000"/>
		<TaxiwayParking parentGroupID="4" groupIndex="13" index="77" type="FUEL" lat="47.52411045125611" lon="9.00018266246268" heading="151.684219" radius="5.000000" name="NONE" number="0" suffix="NONE" pushBack="NONE" numberMarking="FALSE" numberBiasX="0.000000" numberBiasZ="0.000000" numberHeading="0.000000"/>
		<TaxiName index="0" name=""/>
		<TaxiwayPath parentGroupID="5" type="PARKING" surface="{63F42C85-7DE8-44C6-B98C-E9BFB72C7B24}" centerLine="FALSE" start="12" end="48" width="4.800000" weightLimit="0" name="0" drawSurface="FALSE" drawDetail="TRUE" groundMerging="TRUE" excludeVegetationAround="TRUE" excludeVegetationInside="TRUE"/>
		<TaxiwayPath parentGroupID="5" groupIndex="1" type="PARKING" surface="{63F42C85-7DE8-44C6-B98C-E9BFB72C7B24}" centerLine="FALSE" start="47" end="48" width="0.100000" weightLimit="0" name="0" drawSurface="FALSE" drawDetail="TRUE" groundMerging="TRUE" excludeVegetationAround="TRUE" excludeVegetationInside="TRUE"/>
		<TaxiwayPath parentGroupID="5" groupIndex="45" type="PARKING" surface="{63F42C85-7DE8-44C6-B98C-E9BFB72C7B24}" centerLine="FALSE" start="0" end="50" width="4.800000" weightLimit="0" name="0" drawSurface="FALSE" drawDetail="TRUE" groundMerging="TRUE" excludeVegetationAround="TRUE" excludeVegetationInside="TRUE"/>
		<TaxiwayPath parentGroupID="5" groupIndex="47" type="PARKING" surface="{63F42C85-7DE8-44C6-B98C-E9BFB72C7B24}" centerLine="FALSE" start="40" end="50" width="4.800000" weightLimit="0" name="0" drawSurface="FALSE" drawDetail="TRUE" groundMerging="TRUE" excludeVegetationAround="TRUE" excludeVegetationInside="TRUE"/>
		<TaxiwayPath parentGroupID="5" groupIndex="52" type="PARKING" surface="{63F42C85-7DE8-44C6-B98C-E9BFB72C7B24}" centerLine="FALSE" start="12" end="51" width="4.800000" weightLimit="0" name="0" drawSurface="FALSE" drawDetail="TRUE" groundMerging="TRUE" excludeVegetationAround="TRUE" excludeVegetationInside="TRUE"/>
		<TaxiwayPath parentGroupID="5" groupIndex="30" type="PARKING" surface="{63F42C85-7DE8-44C6-B98C-E9BFB72C7B24}" centerLine="FALSE" start="44" end="51" width="5.600000" weightLimit="0" name="0" drawSurface="FALSE" drawDetail="TRUE" groundMerging="TRUE" excludeVegetationAround="TRUE" excludeVegetationInside="TRUE"/>
		<TaxiwayPath parentGroupID="5" groupIndex="49" type="PARKING" surface="{63F42C85-7DE8-44C6-B98C-E9BFB72C7B24}" centerLine="FALSE" start="40" end="52" width="4.800000" weightLimit="0" name="0" drawSurface="FALSE" drawDetail="TRUE" groundMerging="TRUE" excludeVegetationAround="TRUE" excludeVegetationInside="TRUE"/>
		<TaxiwayPath parentGroupID="5" groupIndex="32" type="PARKING" surface="{63F42C85-7DE8-44C6-B98C-E9BFB72C7B24}" centerLine="FALSE" start="43" end="52" width="5.600000" weightLimit="0" name="0" drawSurface="FALSE" drawDetail="TRUE" groundMerging="TRUE" excludeVegetationAround="TRUE" excludeVegetationInside="TRUE"/>
		<TaxiwayPath parentGroupID="5" groupIndex="51" type="PARKING" surface="{63F42C85-7DE8-44C6-B98C-E9BFB72C7B24}" centerLine="FALSE" start="41" end="53" width="4.800000" weightLimit="0" name="0" drawSurface="FALSE" drawDetail="TRUE" groundMerging="TRUE" excludeVegetationAround="TRUE" excludeVegetationInside="TRUE"/>
		<TaxiwayPath parentGroupID="5" groupIndex="35" type="PARKING" surface="{63F42C85-7DE8-44C6-B98C-E9BFB72C7B24}" centerLine="FALSE" start="45" end="53" width="5.600000" weightLimit="0" name="0" drawSurface="FALSE" drawDetail="TRUE" groundMerging="TRUE" excludeVegetationAround="TRUE" excludeVegetationInside="TRUE"/>
		<TaxiwayPath parentGroupID="5" groupIndex="14" type="PARKING" surface="{63F42C85-7DE8-44C6-B98C-E9BFB72C7B24}" centerLine="FALSE" start="32" end="54" width="4.800000" weightLimit="0" name="0" drawSurface="FALSE" drawDetail="TRUE" groundMerging="TRUE" excludeVegetationAround="TRUE" excludeVegetationInside="TRUE"/>
		<TaxiwayPath parentGroupID="5" groupIndex="28" type="PARKING" surface="{63F42C85-7DE8-44C6-B98C-E9BFB72C7B24}" centerLine="FALSE" start="44" end="54" width="5.600000" weightLimit="0" name="0" drawSurface="FALSE" drawDetail="TRUE" groundMerging="TRUE" excludeVegetationAround="TRUE" excludeVegetationInside="TRUE"/>
		<TaxiwayPath parentGroupID="5" groupIndex="26" type="PARKING" surface="{63F42C85-7DE8-44C6-B98C-E9BFB72C7B24}" centerLine="FALSE" start="43" end="55" width="5.600000" weightLimit="0" name="0" drawSurface="FALSE" drawDetail="TRUE" groundMerging="TRUE" excludeVegetationAround="TRUE" excludeVegetationInside="TRUE"/>
		<TaxiwayPath parentGroupID="5" groupIndex="18" type="PARKING" surface="{63F42C85-7DE8-44C6-B98C-E9BFB72C7B24}" centerLine="FALSE" start="46" end="55" width="4.800000" weightLimit="0" name="0" drawSurface="FALSE" drawDetail="TRUE" groundMerging="TRUE" excludeVegetationAround="TRUE" excludeVegetationInside="TRUE"/>
		<TaxiwayPath parentGroupID="5" groupIndex="24" type="PARKING" surface="{63F42C85-7DE8-44C6-B98C-E9BFB72C7B24}" centerLine="FALSE" start="45" end="56" width="5.600000" weightLimit="0" name="0" drawSurface="FALSE" drawDetail="TRUE" groundMerging="TRUE" excludeVegetationAround="TRUE" excludeVegetationInside="TRUE"/>
		<TaxiwayPath parentGroupID="5" groupIndex="22" type="PARKING" surface="{63F42C85-7DE8-44C6-B98C-E9BFB72C7B24}" centerLine="FALSE" start="49" end="56" width="4.800000" weightLimit="0" name="0" drawSurface="FALSE" drawDetail="TRUE" groundMerging="TRUE" excludeVegetationAround="TRUE" excludeVegetationInside="TRUE"/>
		<TaxiwayPath parentGroupID="5" groupIndex="7" type="PARKING" surface="{63F42C85-7DE8-44C6-B98C-E9BFB72C7B24}" centerLine="FALSE" start="11" end="57" width="4.800000" weightLimit="0" name="0" drawSurface="FALSE" drawDetail="TRUE" groundMerging="TRUE" excludeVegetationAround="TRUE" excludeVegetationInside="TRUE"/>
		<TaxiwayPath parentGroupID="5" groupIndex="13" type="PARKING" surface="{63F42C85-7DE8-44C6-B98C-E9BFB72C7B24}" centerLine="FALSE" start="32" end="57" width="4.800000" weightLimit="0" name="0" drawSurface="FALSE" drawDetail="TRUE" groundMerging="TRUE" excludeVegetationAround="TRUE" excludeVegetationInside="TRUE"/>
		<TaxiwayPath parentGroupID="5" groupIndex="16" type="PARKING" surface="{63F42C85-7DE8-44C6-B98C-E9BFB72C7B24}" centerLine="FALSE" start="46" end="58" width="4.800000" weightLimit="0" name="0" drawSurface="FALSE" drawDetail="TRUE" groundMerging="TRUE" excludeVegetationAround="TRUE" excludeVegetationInside="TRUE"/>
		<TaxiwayPath parentGroupID="5" groupIndex="11" type="PARKING" surface="{63F42C85-7DE8-44C6-B98C-E9BFB72C7B24}" centerLine="FALSE" start="63" end="58" width="4.800000" weightLimit="0" name="0" drawSurface="FALSE" drawDetail="TRUE" groundMerging="TRUE" excludeVegetationAround="TRUE" excludeVegetationInside="TRUE"/>
		<TaxiwayPath parentGroupID="5" groupIndex="8" type="PARKING" surface="{63F42C85-7DE8-44C6-B98C-E9BFB72C7B24}" centerLine="FALSE" start="38" end="59" width="5.600000" weightLimit="0" name="0" drawSurface="FALSE" drawDetail="TRUE" groundMerging="TRUE" excludeVegetationAround="TRUE" excludeVegetationInside="TRUE"/>
		<TaxiwayPath parentGroupID="5" groupIndex="20" type="PARKING" surface="{63F42C85-7DE8-44C6-B98C-E9BFB72C7B24}" centerLine="FALSE" start="49" end="59" width="4.800000" weightLimit="0" name="0" drawSurface="FALSE" drawDetail="TRUE" groundMerging="TRUE" excludeVegetationAround="TRUE" excludeVegetationInside="TRUE"/>
		<TaxiwayPath parentGroupID="5" groupIndex="5" type="PARKING" surface="{63F42C85-7DE8-44C6-B98C-E9BFB72C7B24}" centerLine="FALSE" start="63" end="60" width="4.800000" weightLimit="0" name="0" drawSurface="FALSE" drawDetail="TRUE" groundMerging="TRUE" excludeVegetationAround="TRUE" excludeVegetationInside="TRUE"/>
		<TaxiwayPath parentGroupID="5" groupIndex="3" type="PARKING" surface="{63F42C85-7DE8-44C6-B98C-E9BFB72C7B24}" centerLine="FALSE" start="74" end="60" width="4.800000" weightLimit="0" name="0" drawSurface="TRUE" drawDetail="TRUE" groundMerging="TRUE" excludeVegetationAround="TRUE" excludeVegetationInside="TRUE"/>
		<TaxiwayPath parentGroupID="5" groupIndex="2" type="PARKING" surface="{63F42C85-7DE8-44C6-B98C-E9BFB72C7B24}" centerLine="FALSE" start="38" end="61" width="5.600000" weightLimit="0" name="0" drawSurface="FALSE" drawDetail="TRUE" groundMerging="TRUE" excludeVegetationAround="TRUE" excludeVegetationInside="TRUE"/>
		<TaxiwayPath parentGroupID="5" groupIndex="4" type="PARKING" surface="{63F42C85-7DE8-44C6-B98C-E9BFB72C7B24}" centerLine="FALSE" start="75" end="61" width="4.800000" weightLimit="0" name="0" drawSurface="TRUE" drawDetail="TRUE" groundMerging="TRUE" excludeVegetationAround="TRUE" excludeVegetationInside="TRUE"/>
		<TaxiwayPath parentGroupID="5" groupIndex="54" type="PARKING" surface="{63F42C85-7DE8-44C6-B98C-E9BFB72C7B24}" centerLine="FALSE" start="4" end="77" width="5.600000" weightLimit="0" name="0" drawSurface="FALSE" drawDetail="TRUE" groundMerging="TRUE" excludeVegetationAround="TRUE" excludeVegetationInside="TRUE"/>
		<TaxiwayPath parentGroupID="5" groupIndex="61" type="TAXI" surface="{63F42C85-7DE8-44C6-B98C-E9BFB72C7B24}" centerLine="FALSE" start="37" end="0" width="4.800000" weightLimit="0" name="0" drawSurface="FALSE" drawDetail="TRUE" groundMerging="TRUE" excludeVegetationAround="TRUE" excludeVegetationInside="TRUE"/>
		<TaxiwayPath parentGroupID="5" groupIndex="91" type="TAXI" surface="{63F42C85-7DE8-44C6-B98C-E9BFB72C7B24}" centerLine="FALSE" start="47" end="0" width="5.600000" weightLimit="0" name="0" drawSurface="FALSE" drawDetail="TRUE" groundMerging="TRUE" excludeVegetationAround="TRUE" excludeVegetationInside="TRUE"/>
		<TaxiwayPath parentGroupID="5" groupIndex="90" type="TAXI" surface="{63F42C85-7DE8-44C6-B98C-E9BFB72C7B24}" centerLine="FALSE" start="0" end="1" width="5.600000" weightLimit="0" name="0" drawSurface="FALSE" drawDetail="TRUE" groundMerging="TRUE" excludeVegetationAround="TRUE" excludeVegetationInside="TRUE"/>
		<TaxiwayPath parentGroupID="5" groupIndex="89" type="TAXI" surface="{63F42C85-7DE8-44C6-B98C-E9BFB72C7B24}" centerLine="FALSE" start="1" end="2" width="5.600000" weightLimit="0" name="0" drawSurface="FALSE" drawDetail="TRUE" groundMerging="TRUE" excludeVegetationAround="TRUE" excludeVegetationInside="TRUE"/>
		<TaxiwayPath parentGroupID="5" groupIndex="88" type="TAXI" surface="{63F42C85-7DE8-44C6-B98C-E9BFB72C7B24}" centerLine="FALSE" start="2" end="3" width="5.600000" weightLimit="0" name="0" drawSurface="FALSE" drawDetail="TRUE" groundMerging="TRUE" excludeVegetationAround="TRUE" excludeVegetationInside="TRUE"/>
		<TaxiwayPath parentGroupID="5" groupIndex="87" type="TAXI" surface="{63F42C85-7DE8-44C6-B98C-E9BFB72C7B24}" centerLine="FALSE" start="3" end="4" width="5.600000" weightLimit="0" name="0" drawSurface="FALSE" drawDetail="TRUE" groundMerging="TRUE" excludeVegetationAround="TRUE" excludeVegetationInside="TRUE"/>
		<TaxiwayPath parentGroupID="5" groupIndex="79" type="TAXI" surface="{63F42C85-7DE8-44C6-B98C-E9BFB72C7B24}" centerLine="FALSE" start="3" end="5" width="5.600000" weightLimit="0" name="0" drawSurface="FALSE" drawDetail="TRUE" groundMerging="TRUE" excludeVegetationAround="TRUE" excludeVegetationInside="TRUE"/>
		<TaxiwayPath parentGroupID="5" groupIndex="86" type="TAXI" surface="{63F42C85-7DE8-44C6-B98C-E9BFB72C7B24}" centerLine="FALSE" start="4" end="5" width="5.600000" weightLimit="0" name="0" drawSurface="FALSE" drawDetail="TRUE" groundMerging="TRUE" excludeVegetationAround="TRUE" excludeVegetationInside="TRUE"/>
