<?xml version="1.0"?>
<FSData version="9.0">
	<!--SceneryObject name: Gen_Buildings_06-->
	<SceneryObject lat="47.50461618423724" lon="9.01905385509636" alt="0.00000000000000" pitch="0.000000" bank="0.000000" heading="147.000001" imageComplexity="VERY_SPARSE" altitudeIsAgl="TRUE" snapToGround="TRUE" snapToNormal="FALSE">
		<LibraryObject name="{11F6C32D-5F29-4CDE-B155-7EF0AE394078}" scale="1.000000"/>
	</SceneryObject>
	<!--SceneryObject name: Water_Tank_Type01_Tall-->
	<SceneryObject lat="47.50652218616753" lon="9.02131508906346" alt="0.00000000000000" pitch="0.000000" bank="0.000000" heading="170.000007" imageComplexity="VERY_SPARSE" altitudeIsAgl="TRUE" snapToGround="TRUE" snapToNormal="FALSE">
		<LibraryObject name="{952CEBEA-BBBA-48FD-8EE3-40E3F7C34FBA}" scale="1.000000"/>
	</SceneryObject>
	<!--SceneryObject name: Water_Tank_Type02_Mid-->
	<SceneryObject lat="47.50353881615606" lon="9.02055468838106" alt="0.00000000000000" pitch="0.000000" bank="0.000000" heading="170.000007" imageComplexity="VERY_SPARSE" altitudeIsAgl="TRUE" snapToGround="TRUE" snapToNormal="FALSE">
		<LibraryObject name="{A38DFDCD-E4E5-4F7F-8794-18624E5F647F}" scale="1.250000"/>
	</SceneryObject>
	<!--SceneryObject name: Water_Tank_Type02_Mid-->
	<SceneryObject lat="47.50361238112075" lon="9.02004377753506" alt="0.00000000000000" pitch="0.000014" bank="-0.000014" heading="170.000007" imageComplexity="VERY_SPARSE" altitudeIsAgl="TRUE" snapToGround="TRUE" snapToNormal="FALSE">
		<LibraryObject name="{A38DFDCD-E4E5-4F7F-8794-18624E5F647F}" scale="1.400000"/>
	</SceneryObject>
	<!--SceneryObject name: Water_Tank_Type02_Mid-->
	<SceneryObject lat="47.50375424530557" lon="9.02060405217446" alt="0.00000000000000" pitch="0.000000" bank="0.000000" heading="170.000007" imageComplexity="VERY_SPARSE" altitudeIsAgl="TRUE" snapToGround="TRUE" snapToNormal="FALSE">
		<LibraryObject name="{A38DFDCD-E4E5-4F7F-8794-18624E5F647F}" scale="1.250000"/>
	</SceneryObject>
	<!--SceneryObject name: Water_Tank_Type02_Mid-->
	<SceneryObject lat="47.50384117275705" lon="9.02009326007972" alt="0.00000000000000" pitch="0.000014" bank="-0.000014" heading="170.000007" imageComplexity="VERY_SPARSE" altitudeIsAgl="TRUE" snapToGround="TRUE" snapToNormal="FALSE">
		<LibraryObject name="{A38DFDCD-E4E5-4F7F-8794-18624E5F647F}" scale="1.400000"/>
	</SceneryObject>
	<!--SceneryObject name: Water_Tank_Type02_Mid-->
	<SceneryObject lat="47.50396892280699" lon="9.02065243868179" alt="0.00000000000000" pitch="0.000000" bank="0.000000" heading="170.000007" imageComplexity="VERY_SPARSE" altitudeIsAgl="TRUE" snapToGround="TRUE" snapToNormal="FALSE">
		<LibraryObject name="{A38DFDCD-E4E5-4F7F-8794-18624E5F647F}" scale="1.250000"/>
	</SceneryObject>
	<!--SceneryObject name: Water_Tank_Type02_Mid-->
	<SceneryObject lat="47.50406597381518" lon="9.02014366046312" alt="0.00000000000000" pitch="0.000014" bank="-0.000014" heading="170.000007" imageComplexity="VERY_SPARSE" altitudeIsAgl="TRUE" snapToGround="TRUE" snapToNormal="FALSE">
		<LibraryObject name="{A38DFDCD-E4E5-4F7F-8794-18624E5F647F}" scale="1.400000"/>
	</SceneryObject>
	<!--SceneryObject name: Water_Tank_Type02_Mid-->
	<SceneryObject lat="47.50417728101144" lon="9.02070649882933" alt="0.00000000000000" pitch="0.000000" bank="0.000000" heading="170.000007" imageComplexity="VERY_SPARSE" altitudeIsAgl="TRUE" snapToGround="TRUE" snapToNormal="FALSE">
		<LibraryObject name="{A38DFDCD-E4E5-4F7F-8794-18624E5F647F}" scale="1.250000"/>
	</SceneryObject>
	<!--SceneryObject name: Water_Tank_Type02_Mid-->
	<SceneryObject lat="47.50429126267502" lon="9.02020382893526" alt="0.00000000000000" pitch="0.000014" bank="-0.000014" heading="170.000007" imageComplexity="VERY_SPARSE" altitudeIsAgl="TRUE" snapToGround="TRUE" snapToNormal="FALSE">
		<LibraryObject name="{A38DFDCD-E4E5-4F7F-8794-18624E5F647F}" scale="1.400000"/>
	</SceneryObject>
	<!--SceneryObject name: Water_Tank_Type02_Mid-->
	<SceneryObject lat="47.50439329374638" lon="9.02075155676921" alt="0.00000000000000" pitch="0.000014" bank="-0.000014" heading="170.000007" imageComplexity="VERY_SPARSE" altitudeIsAgl="TRUE" snapToGround="TRUE" snapToNormal="FALSE">
		<LibraryObject name="{A38DFDCD-E4E5-4F7F-8794-18624E5F647F}" scale="1.200000"/>
	</SceneryObject>
	<!--SceneryObject name: Water_Tank_Type02_Mid-->
	<SceneryObject lat="47.50460375090481" lon="9.02079780524466" alt="0.00000000000000" pitch="0.000027" bank="-0.000027" heading="170.000007" imageComplexity="VERY_SPARSE" altitudeIsAgl="TRUE" snapToGround="TRUE" snapToNormal="FALSE">
		<LibraryObject name="{A38DFDCD-E4E5-4F7F-8794-18624E5F647F}" scale="1.200000"/>
	</SceneryObject>
	<!--SceneryObject name: Water_Tank_Type03_Mid-->
	<SceneryObject lat="47.50505492374879" lon="9.02100441970184" alt="0.00000000000000" pitch="0.000000" bank="0.000000" heading="170.000007" imageComplexity="VERY_SPARSE" altitudeIsAgl="TRUE" snapToGround="TRUE" snapToNormal="FALSE">
		<LibraryObject name="{DD794778-4164-40E6-BA7D-865660F211C3}" scale="1.800000"/>
	</SceneryObject>
	<!--SceneryObject name: Water_Tank_Type03_Mid-->
	<SceneryObject lat="47.50536835977185" lon="9.02111804253730" alt="0.00000000000000" pitch="0.000000" bank="0.000000" heading="170.000007" imageComplexity="VERY_SPARSE" altitudeIsAgl="TRUE" snapToGround="TRUE" snapToNormal="FALSE">
		<LibraryObject name="{DD794778-4164-40E6-BA7D-865660F211C3}" scale="1.800000"/>
	</SceneryObject>
	<!--SceneryObject name: Water_Tank_Type03_Mid-->
	<SceneryObject lat="47.50567092058940" lon="9.02123717553533" alt="0.00000000000000" pitch="0.000000" bank="0.000000" heading="170.000007" imageComplexity="VERY_SPARSE" altitudeIsAgl="TRUE" snapToGround="TRUE" snapToNormal="FALSE">
		<LibraryObject name="{DD794778-4164-40E6-BA7D-865660F211C3}" scale="1.800000"/>
	</SceneryObject>
	<!--SceneryObject name: Water_Tank_Type03_Tall-->
	<SceneryObject lat="47.50473125358950" lon="9.02028904158444" alt="0.00000000000000" pitch="0.000000" bank="0.000000" heading="170.000007" imageComplexity="VERY_SPARSE" altitudeIsAgl="TRUE" snapToGround="TRUE" snapToNormal="FALSE">
		<LibraryObject name="{AC5C503D-8E30-4272-AA7E-443C9BF48CCD}" scale="1.800000"/>
	</SceneryObject>
	<!--SceneryObject name: Water_Tank_Type03_Tall-->
	<SceneryObject lat="47.50495835764954" lon="9.02035136227388" alt="0.00000000000000" pitch="0.000000" bank="0.000000" heading="170.000007" imageComplexity="VERY_SPARSE" altitudeIsAgl="TRUE" snapToGround="TRUE" snapToNormal="FALSE">
		<LibraryObject name="{AC5C503D-8E30-4272-AA7E-443C9BF48CCD}" scale="1.800000"/>
	</SceneryObject>
	<!--SceneryObject name: Water_Tank_Type03_Tall-->
	<SceneryObject lat="47.50518709969936" lon="9.01983555952511" alt="0.00000000000000" pitch="0.000000" bank="0.000000" heading="170.000007" imageComplexity="VERY_SPARSE" altitudeIsAgl="TRUE" snapToGround="TRUE" snapToNormal="FALSE">
		<LibraryObject name="{AC5C503D-8E30-4272-AA7E-443C9BF48CCD}" scale="1.800000"/>
	</SceneryObject>
	<!--SceneryObject name: Water_Tank_Type03_Tall-->
	<SceneryObject lat="47.50518793524792" lon="9.02041471210251" alt="0.00000000000000" pitch="0.000000" bank="0.000000" heading="170.000007" imageComplexity="VERY_SPARSE" altitudeIsAgl="TRUE" snapToGround="TRUE" snapToNormal="FALSE">
		<LibraryObject name="{AC5C503D-8E30-4272-AA7E-443C9BF48CCD}" scale="1.800000"/>
	</SceneryObject>
	<!--SceneryObject name: Water_Tank_Type03_Tall-->
	<SceneryObject lat="47.50541729010185" lon="9.02045770607115" alt="0.00000000000000" pitch="0.000000" bank="0.000000" heading="170.000007" imageComplexity="VERY_SPARSE" altitudeIsAgl="TRUE" snapToGround="TRUE" snapToNormal="FALSE">
		<LibraryObject name="{AC5C503D-8E30-4272-AA7E-443C9BF48CCD}" scale="1.800000"/>
	</SceneryObject>
	<!--SceneryObject name: Water_Tank_Type04_Mid-->
	<SceneryObject lat="47.50329573997006" lon="9.01929501295409" alt="0.00000000000000" pitch="0.000000" bank="0.000000" heading="170.000007" imageComplexity="VERY_SPARSE" altitudeIsAgl="TRUE" snapToGround="TRUE" snapToNormal="FALSE">
		<LibraryObject name="{3533AEAD-E407-47FB-81EB-4CB880D62D6C}" scale="1.800000"/>
	</SceneryObject>
	<!--SceneryObject name: Water_Tank_Type04_Mid-->
	<SceneryObject lat="47.50358337543928" lon="9.01936674009683" alt="0.00000000000000" pitch="0.000000" bank="0.000000" heading="170.000007" imageComplexity="VERY_SPARSE" altitudeIsAgl="TRUE" snapToGround="TRUE" snapToNormal="FALSE">
		<LibraryObject name="{3533AEAD-E407-47FB-81EB-4CB880D62D6C}" scale="1.800000"/>
	</SceneryObject>
	<!--SceneryObject name: Water_Tank_Type04_Mid-->
	<SceneryObject lat="47.50387085896732" lon="9.01943458269990" alt="0.00000000000000" pitch="0.000000" bank="0.000000" heading="170.000007" imageComplexity="VERY_SPARSE" altitudeIsAgl="TRUE" snapToGround="TRUE" snapToNormal="FALSE">
		<LibraryObject name="{3533AEAD-E407-47FB-81EB-4CB880D62D6C}" scale="1.800000"/>
	</SceneryObject>
	<!--SceneryObject name: Water_Tank_Type04_Mid-->
	<SceneryObject lat="47.50415969314310" lon="9.01950599495316" alt="0.00000000000000" pitch="0.000000" bank="0.000000" heading="170.000007" imageComplexity="VERY_SPARSE" altitudeIsAgl="TRUE" snapToGround="TRUE" snapToNormal="FALSE">
		<LibraryObject name="{3533AEAD-E407-47FB-81EB-4CB880D62D6C}" scale="1.800000"/>
	</SceneryObject>
	<!--SceneryObject name: Water_Tank_Type04_Mid-->
	<SceneryObject lat="47.50467495761796" lon="9.01961968626700" alt="0.00000000000000" pitch="0.000000" bank="0.000000" heading="170.000007" imageComplexity="VERY_SPARSE" altitudeIsAgl="TRUE" snapToGround="TRUE" snapToNormal="FALSE">
		<LibraryObject name="{3533AEAD-E407-47FB-81EB-4CB880D62D6C}" scale="1.800000"/>
	</SceneryObject>
	<!--SceneryObject name: Water_Tank_Type04_Mid-->
	<SceneryObject lat="47.50495870075785" lon="9.01969194273435" alt="0.00000000000000" pitch="0.000000" bank="0.000000" heading="170.000007" imageComplexity="VERY_SPARSE" altitudeIsAgl="TRUE" snapToGround="TRUE" snapToNormal="FALSE">
		<LibraryObject name="{3533AEAD-E407-47FB-81EB-4CB880D62D6C}" scale="1.800000"/>
	</SceneryObject>
	<!--SceneryObject name: Water_Tank_Type05_Mid-->
	<SceneryObject lat="47.50275877539038" lon="9.02041234833951" alt="0.00000000000000" pitch="0.000000" bank="0.000000" heading="170.000007" imageComplexity="VERY_SPARSE" altitudeIsAgl="TRUE" snapToGround="TRUE" snapToNormal="FALSE">
		<LibraryObject name="{1956D8BA-F6B5-4CEB-BDB5-A13FBE2F98DE}" scale="1.500000"/>
	</SceneryObject>
	<!--SceneryObject name: Water_Tank_Type05_Mid-->
	<SceneryObject lat="47.50300477871551" lon="9.02042520319443" alt="0.00000000000000" pitch="0.000000" bank="0.000000" heading="170.000007" imageComplexity="VERY_SPARSE" altitudeIsAgl="TRUE" snapToGround="TRUE" snapToNormal="FALSE">
		<LibraryObject name="{1956D8BA-F6B5-4CEB-BDB5-A13FBE2F98DE}" scale="1.500000"/>
	</SceneryObject>
	<!--SceneryObject name: Water_Tank_Type05_Mid-->
	<SceneryObject lat="47.50302274065743" lon="9.01988699323229" alt="0.00000000000000" pitch="0.000000" bank="0.000000" heading="170.000007" imageComplexity="VERY_SPARSE" altitudeIsAgl="TRUE" snapToGround="TRUE" snapToNormal="FALSE">
		<LibraryObject name="{1956D8BA-F6B5-4CEB-BDB5-A13FBE2F98DE}" scale="1.500000"/>
	</SceneryObject>
	<!--SceneryObject name: Water_Tank_Type05_Mid-->
	<SceneryObject lat="47.50322004262231" lon="9.02048484954324" alt="0.00000000000000" pitch="0.000000" bank="0.000000" heading="170.000007" imageComplexity="VERY_SPARSE" altitudeIsAgl="TRUE" snapToGround="TRUE" snapToNormal="FALSE">
		<LibraryObject name="{1956D8BA-F6B5-4CEB-BDB5-A13FBE2F98DE}" scale="1.500000"/>
	</SceneryObject>
	<!--SceneryObject name: Water_Tank_Type05_Mid-->
	<SceneryObject lat="47.50325413187925" lon="9.01994704712537" alt="0.00000000000000" pitch="0.000000" bank="0.000000" heading="170.000007" imageComplexity="VERY_SPARSE" altitudeIsAgl="TRUE" snapToGround="TRUE" snapToNormal="FALSE">
		<LibraryObject name="{1956D8BA-F6B5-4CEB-BDB5-A13FBE2F98DE}" scale="1.500000"/>
	</SceneryObject>
	<!--SceneryObject name: Water_Tank_Type06_Tall-->
	<SceneryObject lat="47.50396751308384" lon="9.01902659161639" alt="0.00000000000000" pitch="0.000000" bank="0.000000" heading="170.000007" imageComplexity="VERY_SPARSE" altitudeIsAgl="TRUE" snapToGround="TRUE" snapToNormal="FALSE">
		<LibraryObject name="{476CD990-44BC-40FE-807C-1FD3846FCE7F}" scale="1.500000"/>
	</SceneryObject>
	<!--SceneryObject name: Water_Tank_Type06_Tall-->
	<SceneryObject lat="47.50414195240953" lon="9.01907612970609" alt="0.00000000000000" pitch="0.000000" bank="0.000000" heading="170.000007" imageComplexity="VERY_SPARSE" altitudeIsAgl="TRUE" snapToGround="TRUE" snapToNormal="FALSE">
		<LibraryObject name="{476CD990-44BC-40FE-807C-1FD3846FCE7F}" scale="1.500000"/>
	</SceneryObject>
	<!--SceneryObject name: Automatic_Fence-->
	<SceneryObject lat="47.52403990884033" lon="8.99961766118581" alt="0.00000000000000" pitch="0.001318" bank="-0.001318" heading="152.882255" imageComplexity="VERY_SPARSE" altitudeIsAgl="TRUE" snapToGround="TRUE" snapToNormal="FALSE">
		<LibraryObject name="{8BEE7FF0-6CE8-4BD5-B053-20263F075E20}" scale="1.000000"/>
	</SceneryObject>
	<!--SceneryObject name: Barrier_Metal01-->
	<SceneryObject lat="47.52384231301252" lon="8.99968695189420" alt="0.00000000000000" pitch="0.000526" bank="-0.000526" heading="153.924542" imageComplexity="VERY_SPARSE" altitudeIsAgl="TRUE" snapToGround="TRUE" snapToNormal="FALSE">
		<LibraryObject name="{D975E2A3-7AF4-41A5-8A74-9995EC607EE5}" scale="1.000000"/>
	</SceneryObject>
	<!--SceneryObject name: Barrier_Metal01-->
	<SceneryObject lat="47.52385197458705" lon="8.99971572306122" alt="0.00000000000000" pitch="0.001544" bank="-0.001544" heading="154.108739" imageComplexity="VERY_SPARSE" altitudeIsAgl="TRUE" snapToGround="TRUE" snapToNormal="FALSE">
		<LibraryObject name="{D975E2A3-7AF4-41A5-8A74-9995EC607EE5}" scale="1.000000"/>
	</SceneryObject>
	<!--SceneryObject name: Barrier_Metal01-->
	<SceneryObject lat="47.52386155441216" lon="8.99974406508015" alt="0.00000000000000" pitch="0.001018" bank="-0.001018" heading="152.674563" imageComplexity="VERY_SPARSE" altitudeIsAgl="TRUE" snapToGround="TRUE" snapToNormal="FALSE">
		<LibraryObject name="{D975E2A3-7AF4-41A5-8A74-9995EC607EE5}" scale="1.000000"/>
	</SceneryObject>
	<!--SceneryObject name: Barrier_Metal01-->
	<SceneryObject lat="47.52387131060837" lon="8.99977233817848" alt="0.00000000000000" pitch="0.000014" bank="-0.000014" heading="152.000000" imageComplexity="VERY_SPARSE" altitudeIsAgl="TRUE" snapToGround="TRUE" snapToNormal="FALSE">
		<LibraryObject name="{D975E2A3-7AF4-41A5-8A74-9995EC607EE5}" scale="1.000000"/>
	</SceneryObject>
	<!--SceneryObject name: Barrier_Metal01-->
	<SceneryObject lat="47.52388622642288" lon="8.99977952846696" alt="0.00000000000000" pitch="0.000000" bank="0.000000" heading="66.000002" imageComplexity="VERY_SPARSE" altitudeIsAgl="TRUE" snapToGround="TRUE" snapToNormal="FALSE">
		<LibraryObject name="{D975E2A3-7AF4-41A5-8A74-9995EC607EE5}" scale="1.000000"/>
	</SceneryObject>
	<!--SceneryObject name: Barrier_Metal01-->
	<SceneryObject lat="47.52390597642702" lon="8.99976627006725" alt="0.00000000000000" pitch="0.000000" bank="0.000000" heading="66.000002" imageComplexity="VERY_SPARSE" altitudeIsAgl="TRUE" snapToGround="TRUE" snapToNormal="FALSE">
		<LibraryObject name="{D975E2A3-7AF4-41A5-8A74-9995EC607EE5}" scale="1.000000"/>
	</SceneryObject>
	<!--SceneryObject name: Barrier_Metal01-->
	<SceneryObject lat="47.52392531251453" lon="8.99975260063053" alt="0.00000000000000" pitch="0.000362" bank="-0.000362" heading="64.379218" imageComplexity="VERY_SPARSE" altitudeIsAgl="TRUE" snapToGround="TRUE" snapToNormal="FALSE">
		<LibraryObject name="{D975E2A3-7AF4-41A5-8A74-9995EC607EE5}" scale="1.000000"/>
	</SceneryObject>
	<!--SceneryObject name: Barrier_Metal01-->
	<SceneryObject lat="47.52394476149824" lon="8.99973798638601" alt="0.00000000000000" pitch="0.000478" bank="-0.000478" heading="63.379183" imageComplexity="VERY_SPARSE" altitudeIsAgl="TRUE" snapToGround="TRUE" snapToNormal="FALSE">
		<LibraryObject name="{D975E2A3-7AF4-41A5-8A74-9995EC607EE5}" scale="1.000000"/>
	</SceneryObject>
	<!--SceneryObject name: Barrier_Metal01-->
	<SceneryObject lat="47.52396410479653" lon="8.99972344896683" alt="0.00000000000000" pitch="0.000663" bank="-0.000663" heading="63.379101" imageComplexity="VERY_SPARSE" altitudeIsAgl="TRUE" snapToGround="TRUE" snapToNormal="FALSE">
		<LibraryObject name="{D975E2A3-7AF4-41A5-8A74-9995EC607EE5}" scale="1.000000"/>
	</SceneryObject>
	<!--SceneryObject name: Barrier_Metal01-->
	<SceneryObject lat="47.52399084490768" lon="8.99970367262911" alt="0.00000000000000" pitch="0.000451" bank="-0.000451" heading="63.743861" imageComplexity="VERY_SPARSE" altitudeIsAgl="TRUE" snapToGround="TRUE" snapToNormal="FALSE">
		<LibraryObject name="{D975E2A3-7AF4-41A5-8A74-9995EC607EE5}" scale="1.000000"/>
	</SceneryObject>
	<!--SceneryObject name: Barrier_Metal01-->
	<SceneryObject lat="47.52399380376801" lon="8.99968212225020" alt="0.00000000000000" pitch="0.000000" bank="0.000000" heading="153.000008" imageComplexity="VERY_SPARSE" altitudeIsAgl="TRUE" snapToGround="TRUE" snapToNormal="FALSE">
		<LibraryObject name="{D975E2A3-7AF4-41A5-8A74-9995EC607EE5}" scale="1.000000"/>
	</SceneryObject>
	<!--SceneryObject name: Bugalaga_TinyHouse03-->
	<SceneryObject lat="47.52374646513930" lon="8.99926558196243" alt="0.00000000000000" pitch="0.001011" bank="-0.001004" heading="-69.774330" imageComplexity="VERY_SPARSE" altitudeIsAgl="TRUE" snapToGround="TRUE" snapToNormal="FALSE">
		<LibraryObject name="{61C0761A-F8E3-46BD-8484-00A4EB483786}" scale="0.400000"/>
	</SceneryObject>
	<!--SceneryObject name: Bugalaga_TinyHouse03-->
	<SceneryObject lat="47.52431963909896" lon="8.99983685727190" alt="0.00000000000000" pitch="0.000000" bank="0.000000" heading="151.000005" imageComplexity="VERY_SPARSE" altitudeIsAgl="TRUE" snapToGround="TRUE" snapToNormal="FALSE">
		<LibraryObject name="{61C0761A-F8E3-46BD-8484-00A4EB483786}" scale="1.000000"/>
	</SceneryObject>
	<!--SceneryObject name: BushVarious03-->
	<SceneryObject lat="47.52383385505838" lon="8.99966883087358" alt="0.00000000000000" pitch="0.000000" bank="0.000000" heading="152.000000" imageComplexity="VERY_SPARSE" altitudeIsAgl="TRUE" snapToGround="TRUE" snapToNormal="FALSE">
		<LibraryObject name="{86636E02-F929-4CE4-AAE0-19078BA2B699}" scale="1.200000"/>
	</SceneryObject>
	<!--SceneryObject name: Bush_02-->
	<SceneryObject lat="47.52383212252936" lon="8.99968823046284" alt="0.00000000000000" pitch="0.000000" bank="0.000000" heading="152.000000" imageComplexity="VERY_SPARSE" altitudeIsAgl="TRUE" snapToGround="TRUE" snapToNormal="FALSE">
		<LibraryObject name="{617EFA8A-45E7-4945-BE66-64C73F1968D7}" scale="1.200000"/>
	</SceneryObject>
	<!--SceneryObject name: Bush_02-->
	<SceneryObject lat="47.52384994693512" lon="8.99973651133055" alt="0.00000000000000" pitch="0.000000" bank="0.000000" heading="152.000000" imageComplexity="VERY_SPARSE" altitudeIsAgl="TRUE" snapToGround="TRUE" snapToNormal="FALSE">
		<LibraryObject name="{617EFA8A-45E7-4945-BE66-64C73F1968D7}" scale="1.200000"/>
	</SceneryObject>
	<!--SceneryObject name: Bush_Juniper-->
	<SceneryObject lat="47.52367738665011" lon="8.99914318499822" alt="0.00000000000000" pitch="0.000000" bank="0.000000" heading="157.000012" imageComplexity="VERY_SPARSE" altitudeIsAgl="TRUE" snapToGround="TRUE" snapToNormal="FALSE">
		<LibraryObject name="{2ADE52E8-C6D5-4F36-92CD-575FA23BC249}" scale="1.000000"/>
	</SceneryObject>
	<!--SceneryObject name: Bush_Juniper_Potted-->
	<SceneryObject lat="47.52383961800694" lon="8.99953164710690" alt="0.00000000000000" pitch="0.000888" bank="-0.000888" heading="154.000002" imageComplexity="VERY_SPARSE" altitudeIsAgl="TRUE" snapToGround="TRUE" snapToNormal="FALSE">
		<LibraryObject name="{58A0F854-335A-4B2F-BAE4-F7D7C57677EC}" scale="0.700000"/>
	</SceneryObject>
	<!--SceneryObject name: Car01_Yellow-->
	<SceneryObject lat="47.52395736530145" lon="8.99977159622212" alt="0.00000000000000" pitch="0.000594" bank="-0.000594" heading="-116.967290" imageComplexity="VERY_SPARSE" altitudeIsAgl="TRUE" snapToGround="TRUE" snapToNormal="FALSE">
		<LibraryObject name="{0BDAA1CC-0EA6-4D46-BD1A-E99ABFC009B8}" scale="1.000000"/>
	</SceneryObject>
	<!--SceneryObject name: Car02_Black-->
	<SceneryObject lat="47.52445650478657" lon="8.99982008613309" alt="0.00000000000000" pitch="0.000000" bank="0.000000" heading="0.000000" imageComplexity="VERY_SPARSE" altitudeIsAgl="TRUE" snapToGround="TRUE" snapToNormal="FALSE">
		<LibraryObject name="{18A62F92-2507-4965-A8ED-B3083C2447B0}" scale="1.000000"/>
	</SceneryObject>
	<!--SceneryObject name: Car02_Blue-->
	<SceneryObject lat="47.52446797114587" lon="8.99986191272502" alt="0.00000000000000" pitch="0.000000" bank="0.000000" heading="0.000000" imageComplexity="VERY_SPARSE" altitudeIsAgl="TRUE" snapToGround="TRUE" snapToNormal="FALSE">
		<LibraryObject name="{1E3E0562-E890-48DD-B785-0C3FE6C09177}" scale="1.000000"/>
	</SceneryObject>
	<!--SceneryObject name: Car_Line_7C_02-->
	<SceneryObject lat="47.52412897555215" lon="8.99949725052250" alt="0.00000000000000" pitch="0.000000" bank="0.000000" heading="62.999998" imageComplexity="VERY_SPARSE" altitudeIsAgl="TRUE" snapToGround="TRUE" snapToNormal="FALSE">
		<LibraryObject name="{8CF18816-B926-4B9A-80F4-59ADAED13AD6}" scale="1.000000"/>
	</SceneryObject>
	<!--SceneryObject name: Car_Pack_8C_01-->
	<SceneryObject lat="47.52402476775686" lon="8.99936902288304" alt="0.00000000000000" pitch="0.000000" bank="0.000000" heading="62.999998" imageComplexity="VERY_SPARSE" altitudeIsAgl="TRUE" snapToGround="TRUE" snapToNormal="FALSE">
		<LibraryObject name="{304DCAC6-90B1-42A1-A004-F454E5A69D8B}" scale="1.000000"/>
	</SceneryObject>
	<!--SceneryObject name: ConstructionPipe02-->
	<SceneryObject lat="47.52382246277341" lon="8.99933425564835" alt="0.00000000000000" pitch="0.001216" bank="-0.001216" heading="-114.235385" imageComplexity="VERY_SPARSE" altitudeIsAgl="TRUE" snapToGround="TRUE" snapToNormal="FALSE">
		<LibraryObject name="{AB45BDA6-75B6-47D0-878C-E67B6EDD8EC3}" scale="0.500000"/>
	</SceneryObject>
	<!--SceneryObject name: FenceMetallic_1m-->
	<SceneryObject lat="47.52370292982049" lon="8.99915489474039" alt="0.00000000000000" pitch="0.000000" bank="0.000000" heading="112.000001" imageComplexity="VERY_SPARSE" altitudeIsAgl="TRUE" snapToGround="TRUE" snapToNormal="FALSE">
		<LibraryObject name="{C747BE4B-DA8E-4F99-A17A-50E6DFCF8F89}" scale="1.000000"/>
	</SceneryObject>
	<!--SceneryObject name: FenceMetallic_1m-->
	<SceneryObject lat="47.52383350521903" lon="8.99925262417485" alt="0.00000000000000" pitch="0.000348" bank="-0.000348" heading="151.823521" imageComplexity="VERY_SPARSE" altitudeIsAgl="TRUE" snapToGround="TRUE" snapToNormal="FALSE">
		<LibraryObject name="{C747BE4B-DA8E-4F99-A17A-50E6DFCF8F89}" scale="1.000000"/>
	</SceneryObject>
	<!--SceneryObject name: FenceMetallic_1m-->
	<SceneryObject lat="47.52385064607957" lon="8.99930108700316" alt="0.00000000000000" pitch="0.000922" bank="-0.000922" heading="153.366201" imageComplexity="VERY_SPARSE" altitudeIsAgl="TRUE" snapToGround="TRUE" snapToNormal="FALSE">
		<LibraryObject name="{C747BE4B-DA8E-4F99-A17A-50E6DFCF8F89}" scale="1.000000"/>
	</SceneryObject>
	<!--SceneryObject name: FenceMetallic_3m-->
	<SceneryObject lat="47.52373811322231" lon="8.99917569949936" alt="0.00000000000000" pitch="0.000000" bank="0.000000" heading="112.000001" imageComplexity="VERY_SPARSE" altitudeIsAgl="TRUE" snapToGround="TRUE" snapToNormal="FALSE">
		<LibraryObject name="{8C70DAC4-BD05-47C4-A98E-0B93DB74B042}" scale="1.000000"/>
	</SceneryObject>
	<!--SceneryObject name: Fence_Nature01_Little-->
	<SceneryObject lat="47.52367755437559" lon="8.99920241095998" alt="0.00000000000000" pitch="0.000000" bank="0.000000" heading="76.000000" imageComplexity="VERY_SPARSE" altitudeIsAgl="TRUE" snapToGround="TRUE" snapToNormal="FALSE">
		<LibraryObject name="{7C293E2E-30C8-46DA-BDCC-90EC6664BDF0}" scale="1.000000"/>
	</SceneryObject>
	<!--SceneryObject name: Fence_Nature01_Little-->
	<SceneryObject lat="47.52368534842426" lon="8.99924765406278" alt="0.00000000000000" pitch="0.000000" bank="0.000000" heading="76.000000" imageComplexity="VERY_SPARSE" altitudeIsAgl="TRUE" snapToGround="TRUE" snapToNormal="FALSE">
		<LibraryObject name="{7C293E2E-30C8-46DA-BDCC-90EC6664BDF0}" scale="1.000000"/>
	</SceneryObject>
	<!--SceneryObject name: Fence_Nature01_Little-->
	<SceneryObject lat="47.52369287608225" lon="8.99929284814423" alt="0.00000000000000" pitch="0.000000" bank="0.000000" heading="76.000000" imageComplexity="VERY_SPARSE" altitudeIsAgl="TRUE" snapToGround="TRUE" snapToNormal="FALSE">
		<LibraryObject name="{7C293E2E-30C8-46DA-BDCC-90EC6664BDF0}" scale="1.000000"/>
	</SceneryObject>
	<!--SceneryObject name: Fence_Nature01_Little-->
	<SceneryObject lat="47.52370030122619" lon="8.99933738132175" alt="0.00000000000000" pitch="0.000000" bank="0.000000" heading="76.000000" imageComplexity="VERY_SPARSE" altitudeIsAgl="TRUE" snapToGround="TRUE" snapToNormal="FALSE">
		<LibraryObject name="{7C293E2E-30C8-46DA-BDCC-90EC6664BDF0}" scale="1.000000"/>
	</SceneryObject>
	<!--SceneryObject name: Fence_Nature01_Little-->
	<SceneryObject lat="47.52370779422216" lon="8.99938221252818" alt="0.00000000000000" pitch="0.000000" bank="0.000000" heading="76.000000" imageComplexity="VERY_SPARSE" altitudeIsAgl="TRUE" snapToGround="TRUE" snapToNormal="FALSE">
		<LibraryObject name="{7C293E2E-30C8-46DA-BDCC-90EC6664BDF0}" scale="1.000000"/>
	</SceneryObject>
	<!--SceneryObject name: Fence_Nature01_Little-->
	<SceneryObject lat="47.52371552061760" lon="8.99942730878120" alt="0.00000000000000" pitch="0.000000" bank="0.000000" heading="76.000000" imageComplexity="VERY_SPARSE" altitudeIsAgl="TRUE" snapToGround="TRUE" snapToNormal="FALSE">
		<LibraryObject name="{7C293E2E-30C8-46DA-BDCC-90EC6664BDF0}" scale="1.000000"/>
	</SceneryObject>
	<!--SceneryObject name: Fence_Nature01_Little-->
	<SceneryObject lat="47.52372682156381" lon="8.99946966557559" alt="0.00000000000000" pitch="0.000000" bank="0.000000" heading="62.000004" imageComplexity="VERY_SPARSE" altitudeIsAgl="TRUE" snapToGround="TRUE" snapToNormal="FALSE">
		<LibraryObject name="{7C293E2E-30C8-46DA-BDCC-90EC6664BDF0}" scale="1.000000"/>
	</SceneryObject>
	<!--SceneryObject name: Fence_Nature01_Little-->
	<SceneryObject lat="47.52374169882651" lon="8.99951071880009" alt="0.00000000000000" pitch="0.000000" bank="0.000000" heading="62.000004" imageComplexity="VERY_SPARSE" altitudeIsAgl="TRUE" snapToGround="TRUE" snapToNormal="FALSE">
		<LibraryObject name="{7C293E2E-30C8-46DA-BDCC-90EC6664BDF0}" scale="1.000000"/>
	</SceneryObject>
	<!--SceneryObject name: Fence_Nature01_Little-->
	<SceneryObject lat="47.52375652930484" lon="8.99955184993487" alt="0.00000000000000" pitch="0.000000" bank="0.000000" heading="62.000004" imageComplexity="VERY_SPARSE" altitudeIsAgl="TRUE" snapToGround="TRUE" snapToNormal="FALSE">
		<LibraryObject name="{7C293E2E-30C8-46DA-BDCC-90EC6664BDF0}" scale="1.000000"/>
	</SceneryObject>
	<!--SceneryObject name: Fence_Nature01_Little-->
	<SceneryObject lat="47.52377122970561" lon="8.99959272290727" alt="0.00000000000000" pitch="0.000000" bank="0.000000" heading="62.000004" imageComplexity="VERY_SPARSE" altitudeIsAgl="TRUE" snapToGround="TRUE" snapToNormal="FALSE">
		<LibraryObject name="{7C293E2E-30C8-46DA-BDCC-90EC6664BDF0}" scale="1.000000"/>
	</SceneryObject>
	<!--SceneryObject name: Fence_Nature01_Little-->
	<SceneryObject lat="47.52378585043697" lon="8.99963355386336" alt="0.00000000000000" pitch="0.000014" bank="-0.000014" heading="62.000004" imageComplexity="VERY_SPARSE" altitudeIsAgl="TRUE" snapToGround="TRUE" snapToNormal="FALSE">
		<LibraryObject name="{7C293E2E-30C8-46DA-BDCC-90EC6664BDF0}" scale="1.000000"/>
	</SceneryObject>
	<!--SceneryObject name: Fence_Nature01_Little-->
	<SceneryObject lat="47.52380620444141" lon="8.99964367537577" alt="0.00000000000000" pitch="0.000000" bank="0.000000" heading="154.999996" imageComplexity="VERY_SPARSE" altitudeIsAgl="TRUE" snapToGround="TRUE" snapToNormal="FALSE">
		<LibraryObject name="{7C293E2E-30C8-46DA-BDCC-90EC6664BDF0}" scale="1.000000"/>
	</SceneryObject>
	<!--SceneryObject name: FuelTruck01_Black-->
	<SceneryObject lat="47.52403888888512" lon="9.00021388888889" alt="0.00000000000000" pitch="0.000908" bank="-0.000840" heading="-118.000233" imageComplexity="VERY_SPARSE" altitudeIsAgl="TRUE" snapToGround="TRUE" snapToNormal="FALSE">
		<LibraryObject name="{867E8579-7FA5-4FAD-AF41-E3C89CB6DE44}" scale="1.000000"/>
	</SceneryObject>
	<!--SceneryObject name: Garbage_Container02_Little-->
	<SceneryObject lat="47.52396313304753" lon="8.99969953952285" alt="0.00000000000000" pitch="0.000000" bank="0.000000" heading="62.000004" imageComplexity="VERY_SPARSE" altitudeIsAgl="TRUE" snapToGround="TRUE" snapToNormal="FALSE">
		<LibraryObject name="{6B095CF6-4FB1-456B-95F4-827322C06031}" scale="1.000000"/>
	</SceneryObject>
	<!--SceneryObject name: Garden_Bush02-->
	<SceneryObject lat="47.52367720111403" lon="8.99916761604874" alt="0.00000000000000" pitch="0.000000" bank="0.000000" heading="157.000012" imageComplexity="VERY_SPARSE" altitudeIsAgl="TRUE" snapToGround="TRUE" snapToNormal="FALSE">
		<LibraryObject name="{01A6311F-B9E5-4997-B7B8-693B31D5CA29}" scale="1.000000"/>
	</SceneryObject>
	<!--SceneryObject name: Gen_Airport_RedWhite_Antenna_01-->
	<SceneryObject lat="47.52205836682314" lon="9.02701050682434" alt="0.00000000000000" pitch="0.000068" bank="-0.000068" heading="151.000033" imageComplexity="VERY_SPARSE" altitudeIsAgl="TRUE" snapToGround="TRUE" snapToNormal="FALSE">
		<LibraryObject name="{1DEF7401-E51C-44DE-B545-C7B2002E289E}" scale="2.800000"/>
	</SceneryObject>
	<!--SceneryObject name: Gen_Hangar02-->
	<SceneryObject lat="47.52433493538308" lon="9.00008335539871" alt="0.00000000000000" pitch="0.001544" bank="-0.001544" heading="152.200001" imageComplexity="VERY_SPARSE" altitudeIsAgl="TRUE" snapToGround="TRUE" snapToNormal="FALSE">
		<LibraryObject name="{9218816C-5828-4392-8C1A-E52B26681CE4}" scale="0.830000"/>
	</SceneryObject>
	<!--SceneryObject name: Gen_Hangar02-->
	<SceneryObject lat="47.52442668153419" lon="9.00034657891494" alt="0.00000000000000" pitch="0.001544" bank="-0.001544" heading="152.200001" imageComplexity="VERY_SPARSE" altitudeIsAgl="TRUE" snapToGround="TRUE" snapToNormal="FALSE">
		<LibraryObject name="{9218816C-5828-4392-8C1A-E52B26681CE4}" scale="0.830000"/>
	</SceneryObject>
	<!--SceneryObject name: Gen_Hangar02-->
	<SceneryObject lat="47.52451835629435" lon="9.00060521688199" alt="0.00000000000000" pitch="0.001544" bank="-0.001544" heading="152.200001" imageComplexity="VERY_SPARSE" altitudeIsAgl="TRUE" snapToGround="TRUE" snapToNormal="FALSE">
		<LibraryObject name="{9218816C-5828-4392-8C1A-E52B26681CE4}" scale="0.830000"/>
	</SceneryObject>
	<!--SceneryObject name: Gen_Hangar02-->
	<SceneryObject lat="47.52461111989808" lon="9.00086713744234" alt="0.00000000000000" pitch="0.001543" bank="-0.001543" heading="152.200001" imageComplexity="VERY_SPARSE" altitudeIsAgl="TRUE" snapToGround="TRUE" snapToNormal="FALSE">
		<LibraryObject name="{9218816C-5828-4392-8C1A-E52B26681CE4}" scale="0.830000"/>
	</SceneryObject>
	<!--SceneryObject name: Gen_Hangar02-->
	<SceneryObject lat="47.52470379460478" lon="9.00112741730037" alt="0.00000000000000" pitch="0.001543" bank="-0.001543" heading="152.200001" imageComplexity="VERY_SPARSE" altitudeIsAgl="TRUE" snapToGround="TRUE" snapToNormal="FALSE">
		<LibraryObject name="{9218816C-5828-4392-8C1A-E52B26681CE4}" scale="0.830000"/>
	</SceneryObject>
	<!--SceneryObject name: Gen_Hangar100-->
	<SceneryObject lat="47.52423804364176" lon="8.99964440127697" alt="0.00000000000000" pitch="0.000055" bank="-0.000055" heading="62.999998" imageComplexity="VERY_SPARSE" altitudeIsAgl="TRUE" snapToGround="TRUE" snapToNormal="FALSE">
		<LibraryObject name="{80605B39-9A33-46F8-8306-648415D102F9}" scale="1.200000"/>
	</SceneryObject>
	<!--SceneryObject name: Gen_Hangar121-->
	<SceneryObject lat="47.52414636563633" lon="8.99970990207137" alt="0.00000000000000" pitch="0.001544" bank="-0.001544" heading="-27.611299" imageComplexity="VERY_SPARSE" altitudeIsAgl="TRUE" snapToGround="TRUE" snapToNormal="FALSE">
		<LibraryObject name="{42555E22-3916-44A5-800A-7C908FDC51C2}" scale="1.100000"/>
	</SceneryObject>
	<!--SceneryObject name: Gibraltar_Building07-->
	<SceneryObject lat="47.52390425274665" lon="8.99960471107807" alt="0.00000000000000" pitch="0.000082" bank="-0.000082" heading="-27.000018" imageComplexity="VERY_SPARSE" altitudeIsAgl="TRUE" snapToGround="TRUE" snapToNormal="FALSE">
		<LibraryObject name="{1CE2E4DC-8579-47CF-942F-296B1050BD7E}" scale="0.820000"/>
	</SceneryObject>
	<!--SceneryObject name: Mariscal_Sucre_Building_19-->
	<SceneryObject lat="47.52383768970896" lon="8.99963996432849" alt="0.00000000000000" pitch="0.000041" bank="-0.000041" heading="64.000006" imageComplexity="VERY_SPARSE" altitudeIsAgl="TRUE" snapToGround="TRUE" snapToNormal="FALSE">
		<LibraryObject name="{2149B923-0400-4A35-90AF-641A14728EAF}" scale="0.550000"/>
	</SceneryObject>
	<!--SceneryObject name: Mariscal_Sucre_Building_19-->
	<SceneryObject lat="47.52407055555179" lon="9.00021472222222" alt="0.00000000000000" pitch="0.000027" bank="-0.000027" heading="151.999986" imageComplexity="VERY_SPARSE" altitudeIsAgl="TRUE" snapToGround="TRUE" snapToNormal="FALSE">
		<LibraryObject name="{2149B923-0400-4A35-90AF-641A14728EAF}" scale="1.000000"/>
	</SceneryObject>
	<!--SceneryObject name: Panel_Sign_Big_02-->
	<SceneryObject lat="47.52387713023902" lon="8.99939761647064" alt="0.00000000000000" pitch="0.000000" bank="0.000000" heading="154.000002" imageComplexity="VERY_SPARSE" altitudeIsAgl="TRUE" snapToGround="TRUE" snapToNormal="FALSE">
		<LibraryObject name="{C55C4060-919E-4167-BF9C-FEF5597AD07B}" scale="1.000000"/>
	</SceneryObject>
	<!--SceneryObject name: Panel_Sign_small_Pub_01-->
	<SceneryObject lat="47.52383937282886" lon="8.99947035921699" alt="0.00000000000000" pitch="0.000014" bank="-0.000014" heading="154.000002" imageComplexity="VERY_SPARSE" altitudeIsAgl="TRUE" snapToGround="TRUE" snapToNormal="FALSE">
		<LibraryObject name="{8E9899E3-7842-42BA-B742-D85B25849D91}" scale="1.400000"/>
	</SceneryObject>
	<!--SceneryObject name: Panel_Sign_small_Pub_02-->
	<SceneryObject lat="47.52384160627670" lon="8.99957275255482" alt="0.00000000000000" pitch="0.000758" bank="-0.000806" heading="-16.630247" imageComplexity="VERY_SPARSE" altitudeIsAgl="TRUE" snapToGround="TRUE" snapToNormal="FALSE">
		<LibraryObject name="{C308D72F-AA49-474F-913C-924B4DAA3111}" scale="1.300000"/>
	</SceneryObject>
	<!--SceneryObject name: Parasol01-->
	<SceneryObject lat="47.52376888621143" lon="8.99946746048161" alt="0.00000000000000" pitch="0.000014" bank="-0.000014" heading="-179.999991" imageComplexity="VERY_SPARSE" altitudeIsAgl="TRUE" snapToGround="TRUE" snapToNormal="FALSE">
		<LibraryObject name="{F0ABE293-9437-4B91-B320-8579D692EB08}" scale="1.400000"/>
	</SceneryObject>
	<!--SceneryObject name: Parasol01-->
	<SceneryObject lat="47.52378473521132" lon="8.99952101534709" alt="0.00000000000000" pitch="0.000014" bank="-0.000014" heading="-179.999991" imageComplexity="VERY_SPARSE" altitudeIsAgl="TRUE" snapToGround="TRUE" snapToNormal="FALSE">
		<LibraryObject name="{F0ABE293-9437-4B91-B320-8579D692EB08}" scale="1.400000"/>
	</SceneryObject>
	<!--SceneryObject name: Parasol01-->
	<SceneryObject lat="47.52380253317010" lon="8.99957388883021" alt="0.00000000000000" pitch="0.000041" bank="-0.000041" heading="-179.999991" imageComplexity="VERY_SPARSE" altitudeIsAgl="TRUE" snapToGround="TRUE" snapToNormal="FALSE">
		<LibraryObject name="{F0ABE293-9437-4B91-B320-8579D692EB08}" scale="1.400000"/>
	</SceneryObject>
	<!--SceneryObject name: Parasol01_closed-->
	<SceneryObject lat="47.52380128263615" lon="8.99943954894658" alt="0.00000000000000" pitch="0.000014" bank="-0.000014" heading="161.000003" imageComplexity="VERY_SPARSE" altitudeIsAgl="TRUE" snapToGround="TRUE" snapToNormal="FALSE">
		<LibraryObject name="{AFF7DA65-116F-4811-90B4-A80DDFC47965}" scale="1.400000"/>
	</SceneryObject>
	<!--SceneryObject name: Parasol01_closed-->
	<SceneryObject lat="47.52381940054691" lon="8.99949534781287" alt="0.00000000000000" pitch="0.000014" bank="-0.000014" heading="161.000003" imageComplexity="VERY_SPARSE" altitudeIsAgl="TRUE" snapToGround="TRUE" snapToNormal="FALSE">
		<LibraryObject name="{AFF7DA65-116F-4811-90B4-A80DDFC47965}" scale="1.400000"/>
	</SceneryObject>
	<!--SceneryObject name: Pickup01_Black-->
	<SceneryObject lat="47.52443967039103" lon="8.99977561352877" alt="0.00000000000000" pitch="0.000000" bank="0.000000" heading="0.000000" imageComplexity="VERY_SPARSE" altitudeIsAgl="TRUE" snapToGround="TRUE" snapToNormal="FALSE">
		<LibraryObject name="{2788AB17-2BE4-4D18-A984-59F03598557E}" scale="1.000000"/>
	</SceneryObject>
	<!--SceneryObject name: Picnic_Table01-->
	<SceneryObject lat="47.52375010110764" lon="8.99946720460990" alt="0.00000000000000" pitch="0.000014" bank="-0.000014" heading="154.000002" imageComplexity="VERY_SPARSE" altitudeIsAgl="TRUE" snapToGround="TRUE" snapToNormal="FALSE">
		<LibraryObject name="{C7E4CFE6-007D-460D-B084-5E2667C7CEF0}" scale="1.300000"/>
	</SceneryObject>
	<!--SceneryObject name: Picnic_Table01-->
	<SceneryObject lat="47.52376625648373" lon="8.99951640399554" alt="0.00000000000000" pitch="0.000014" bank="-0.000014" heading="154.000002" imageComplexity="VERY_SPARSE" altitudeIsAgl="TRUE" snapToGround="TRUE" snapToNormal="FALSE">
		<LibraryObject name="{C7E4CFE6-007D-460D-B084-5E2667C7CEF0}" scale="1.300000"/>
	</SceneryObject>
	<!--SceneryObject name: Picnic_Table01-->
	<SceneryObject lat="47.52378236892707" lon="8.99956273569337" alt="0.00000000000000" pitch="0.000027" bank="-0.000027" heading="154.000002" imageComplexity="VERY_SPARSE" altitudeIsAgl="TRUE" snapToGround="TRUE" snapToNormal="FALSE">
		<LibraryObject name="{C7E4CFE6-007D-460D-B084-5E2667C7CEF0}" scale="1.300000"/>
	</SceneryObject>
	<!--SceneryObject name: Picnic_Table01-->
	<SceneryObject lat="47.52378302805518" lon="8.99944292671614" alt="0.00000000000000" pitch="0.000014" bank="-0.000014" heading="154.000002" imageComplexity="VERY_SPARSE" altitudeIsAgl="TRUE" snapToGround="TRUE" snapToNormal="FALSE">
		<LibraryObject name="{C7E4CFE6-007D-460D-B084-5E2667C7CEF0}" scale="1.300000"/>
	</SceneryObject>
	<!--SceneryObject name: Picnic_Table01-->
	<SceneryObject lat="47.52379904336645" lon="8.99960768493148" alt="0.00000000000000" pitch="0.000041" bank="-0.000041" heading="154.000002" imageComplexity="VERY_SPARSE" altitudeIsAgl="TRUE" snapToGround="TRUE" snapToNormal="FALSE">
		<LibraryObject name="{C7E4CFE6-007D-460D-B084-5E2667C7CEF0}" scale="1.300000"/>
	</SceneryObject>
	<!--SceneryObject name: Picnic_Table01-->
	<SceneryObject lat="47.52379937735285" lon="8.99949240853741" alt="0.00000000000000" pitch="0.000014" bank="-0.000014" heading="154.000002" imageComplexity="VERY_SPARSE" altitudeIsAgl="TRUE" snapToGround="TRUE" snapToNormal="FALSE">
		<LibraryObject name="{C7E4CFE6-007D-460D-B084-5E2667C7CEF0}" scale="1.300000"/>
	</SceneryObject>
	<!--SceneryObject name: Pilot_Male_Casual_IDLE-->
	<SceneryObject lat="47.52378242157029" lon="8.99958825406075" alt="0.00000000000000" pitch="0.000000" bank="0.000000" heading="135.000000" imageComplexity="VERY_SPARSE" altitudeIsAgl="TRUE" snapToGround="TRUE" snapToNormal="FALSE">
		<LibraryObject name="{19775524-A6DB-4C31-BE0A-A46767107B87}" scale="1.200000"/>
	</SceneryObject>
	<!--SceneryObject name: Pilot_Male_Casual_IDLE-->
	<SceneryObject lat="47.52397130037494" lon="8.99982056380220" alt="0.00000000000000" pitch="0.001209" bank="-0.001209" heading="35.292148" imageComplexity="VERY_SPARSE" altitudeIsAgl="TRUE" snapToGround="TRUE" snapToNormal="FALSE">
		<LibraryObject name="{19775524-A6DB-4C31-BE0A-A46767107B87}" scale="1.100000"/>
	</SceneryObject>
	<!--SceneryObject name: Road_Sign_Stop-->
	<SceneryObject lat="47.52278472231663" lon="8.99873552648274" alt="0.00000000000000" pitch="0.000273" bank="-0.000232" heading="69.073444" imageComplexity="VERY_SPARSE" altitudeIsAgl="TRUE" snapToGround="TRUE" snapToNormal="FALSE">
		<LibraryObject name="{3D25C04A-E350-43C2-B950-305269C2ACA2}" scale="1.200000"/>
	</SceneryObject>
	<!--SceneryObject name: Road_Sign_Stop-->
	<SceneryObject lat="47.52278499999623" lon="8.99864361111111" alt="0.00000000000000" pitch="0.000027" bank="-0.000027" heading="19.999996" imageComplexity="VERY_SPARSE" altitudeIsAgl="TRUE" snapToGround="TRUE" snapToNormal="FALSE">
		<LibraryObject name="{3D25C04A-E350-43C2-B950-305269C2ACA2}" scale="1.200000"/>
	</SceneryObject>
	<!--SceneryObject name: Road_Sign_Stop-->
	<SceneryObject lat="47.52354333332956" lon="8.99906472222222" alt="0.00000000000000" pitch="0.000027" bank="-0.000027" heading="19.999996" imageComplexity="VERY_SPARSE" altitudeIsAgl="TRUE" snapToGround="TRUE" snapToNormal="FALSE">
		<LibraryObject name="{3D25C04A-E350-43C2-B950-305269C2ACA2}" scale="1.200000"/>
	</SceneryObject>
	<SceneryObject lat="47.52390361110732" lon="8.99996305555556" alt="0.00000000000000" pitch="0.000068" bank="-0.000068" heading="63.600051" imageComplexity="VERY_SPARSE" altitudeIsAgl="TRUE" snapToGround="TRUE" snapToNormal="FALSE">
		<SimObject containerTitle="LSZT-tee" scale="1.000000"/>
	</SceneryObject>
	<SceneryObject lat="47.52379288286380" lon="8.99959841215776" alt="0.55000000000000" pitch="0.000027" bank="-0.000027" heading="112.000062" imageComplexity="VERY_SPARSE" altitudeIsAgl="TRUE" snapToGround="FALSE" snapToNormal="FALSE">
		<SimObject containerTitle="Pilot_Female_Asian" scale="1.200000"/>
	</SceneryObject>
	<SceneryObject lat="47.52398253992256" lon="8.99982459538210" alt="0.00000000000000" pitch="0.000014" bank="-0.000014" heading="147.000001" imageComplexity="VERY_SPARSE" altitudeIsAgl="TRUE" snapToGround="TRUE" snapToNormal="FALSE">
		<SimObject containerTitle="Tarmac_Female_Summer_Asian" scale="1.100000"/>
	</SceneryObject>
	<!--SceneryObject name: SportCar01_Green-->
	<SceneryObject lat="47.52442964206107" lon="8.99973523709214" alt="0.00000000000000" pitch="0.000000" bank="0.000000" heading="0.000000" imageComplexity="VERY_SPARSE" altitudeIsAgl="TRUE" snapToGround="TRUE" snapToNormal="FALSE">
		<LibraryObject name="{19E42488-18E0-4CC0-B895-A5503156FC24}" scale="1.000000"/>
	</SceneryObject>
	<!--SceneryObject name: Toolbox_Small-->
	<SceneryObject lat="47.52428836399360" lon="9.00019027028770" alt="0.00000000000000" pitch="0.000000" bank="0.000000" heading="-111.000000" imageComplexity="VERY_SPARSE" altitudeIsAgl="TRUE" snapToGround="TRUE" snapToNormal="FALSE">
		<LibraryObject name="{83379B65-2D74-4356-A133-28964F10D191}" scale="1.200000"/>
	</SceneryObject>
	<!--SceneryObject name: Unknown-->
	<SceneryObject lat="47.52204115908570" lon="9.02705232052616" alt="0.00000000000000" pitch="0.000041" bank="-0.000041" heading="151.000033" imageComplexity="VERY_SPARSE" altitudeIsAgl="TRUE" snapToGround="TRUE" snapToNormal="FALSE">
		<LibraryObject name="{064FE77B-1D19-4219-A0D3-332ECEB8E315}" scale="2.500000"/>
	</SceneryObject>
	<!--SceneryObject name: Unknown-->
	<SceneryObject lat="47.52381152015028" lon="8.99929620643817" alt="0.00000000000000" pitch="0.000417" bank="-0.000417" heading="152.591508" imageComplexity="VERY_SPARSE" altitudeIsAgl="TRUE" snapToGround="TRUE" snapToNormal="FALSE">
		<LibraryObject name="{81EDD81D-9276-4CF7-81F7-3BD16E7C1F3B}" scale="0.500000"/>
	</SceneryObject>
	<SceneryObject lat="47.52387694444066" lon="8.99978361111111" alt="0.00000000000000" pitch="0.000041" bank="-0.000041" heading="-0.000034" imageComplexity="VERY_SPARSE" altitudeIsAgl="TRUE" snapToGround="TRUE" snapToNormal="FALSE">
		<Windsock poleHeight="4.572000" sockLength="2.743200" lighted="FALSE"/>
	</SceneryObject>
	<SceneryObject lat="47.52561499999623" lon="9.00726277777778" alt="0.00000000000000" pitch="0.000041" bank="-0.000041" heading="-0.000034" imageComplexity="VERY_SPARSE" altitudeIsAgl="TRUE" snapToGround="TRUE" snapToNormal="FALSE">
		<Windsock poleHeight="4.572000" sockLength="2.743200" lighted="FALSE"/>
	</SceneryObject>
	<!--SceneryObject name: boundary1-->
	<SceneryObject lat="47.52291913691626" lon="8.99926606483358" alt="0.00000000000000" pitch="0.000041" bank="-0.000041" heading="153.599999" imageComplexity="VERY_SPARSE" altitudeIsAgl="TRUE" snapToGround="TRUE" snapToNormal="FALSE">
		<LibraryObject name="{960B3810-06C2-432B-9094-BFD864FFBE4E}" scale="1.000000"/>
	</SceneryObject>
	<!--SceneryObject name: boundary1-->
	<SceneryObject lat="47.52293135913849" lon="8.99923106483358" alt="0.00000000000000" pitch="0.000055" bank="-0.000055" heading="63.600051" imageComplexity="VERY_SPARSE" altitudeIsAgl="TRUE" snapToGround="TRUE" snapToNormal="FALSE">
		<LibraryObject name="{960B3810-06C2-432B-9094-BFD864FFBE4E}" scale="1.000000"/>
	</SceneryObject>
	<!--SceneryObject name: boundary1-->
	<SceneryObject lat="47.52341527777401" lon="8.99900833333333" alt="0.00000000000000" pitch="0.000055" bank="-0.000055" heading="63.600051" imageComplexity="VERY_SPARSE" altitudeIsAgl="TRUE" snapToGround="TRUE" snapToNormal="FALSE">
		<LibraryObject name="{960B3810-06C2-432B-9094-BFD864FFBE4E}" scale="1.000000"/>
	</SceneryObject>
	<!--SceneryObject name: boundary1-->
	<SceneryObject lat="47.52344138888515" lon="8.99902166666667" alt="0.00000000000000" pitch="0.000041" bank="-0.000041" heading="153.599999" imageComplexity="VERY_SPARSE" altitudeIsAgl="TRUE" snapToGround="TRUE" snapToNormal="FALSE">
		<LibraryObject name="{960B3810-06C2-432B-9094-BFD864FFBE4E}" scale="1.000000"/>
	</SceneryObject>
	<!--SceneryObject name: boundary1-->
	<SceneryObject lat="47.52591999999621" lon="9.00796444444445" alt="0.00000000000000" pitch="0.000738" bank="-0.000738" heading="146.690006" imageComplexity="VERY_SPARSE" altitudeIsAgl="TRUE" snapToGround="TRUE" snapToNormal="FALSE">
		<LibraryObject name="{960B3810-06C2-432B-9094-BFD864FFBE4E}" scale="1.000000"/>
	</SceneryObject>
	<!--SceneryObject name: boundary1-->
	<SceneryObject lat="47.52594083332959" lon="9.00798333333333" alt="0.00000000000000" pitch="0.000055" bank="-0.000055" heading="63.600051" imageComplexity="VERY_SPARSE" altitudeIsAgl="TRUE" snapToGround="TRUE" snapToNormal="FALSE">
		<LibraryObject name="{960B3810-06C2-432B-9094-BFD864FFBE4E}" scale="1.000000"/>
	</SceneryObject>
	<!--SceneryObject name: boundary1-->
	<SceneryObject lat="47.52639194444066" lon="9.00774805555556" alt="0.00000000000000" pitch="0.000055" bank="-0.000055" heading="63.600051" imageComplexity="VERY_SPARSE" altitudeIsAgl="TRUE" snapToGround="TRUE" snapToNormal="FALSE">
		<LibraryObject name="{960B3810-06C2-432B-9094-BFD864FFBE4E}" scale="1.000000"/>
	</SceneryObject>
	<!--SceneryObject name: boundary1-->
	<SceneryObject lat="47.52639388888511" lon="9.00771638888889" alt="0.00000000000000" pitch="0.000041" bank="-0.000041" heading="153.599999" imageComplexity="VERY_SPARSE" altitudeIsAgl="TRUE" snapToGround="TRUE" snapToNormal="FALSE">
		<LibraryObject name="{960B3810-06C2-432B-9094-BFD864FFBE4E}" scale="1.000000"/>
	</SceneryObject>
	<!--SceneryObject name: marker2_blue-->
	<SceneryObject lat="47.52353416666288" lon="8.99940527777778" alt="0.00000000000000" pitch="0.000041" bank="-0.000041" heading="63.600051" imageComplexity="VERY_SPARSE" altitudeIsAgl="TRUE" snapToGround="TRUE" snapToNormal="FALSE">
		<LibraryObject name="{06DEA177-373B-4167-BD91-B20C59310071}" scale="1.000000"/>
	</SceneryObject>
	<!--SceneryObject name: marker2_blue-->
	<SceneryObject lat="47.52360777777402" lon="8.99963444444445" alt="0.00000000000000" pitch="0.000041" bank="-0.000041" heading="63.600051" imageComplexity="VERY_SPARSE" altitudeIsAgl="TRUE" snapToGround="TRUE" snapToNormal="FALSE">
		<LibraryObject name="{06DEA177-373B-4167-BD91-B20C59310071}" scale="1.000000"/>
	</SceneryObject>
	<!--SceneryObject name: marker2_blue-->
	<SceneryObject lat="47.52365351776802" lon="8.99936903778327" alt="0.00000000000000" pitch="0.000014" bank="-0.000014" heading="63.600017" imageComplexity="VERY_SPARSE" altitudeIsAgl="TRUE" snapToGround="TRUE" snapToNormal="FALSE">
		<LibraryObject name="{06DEA177-373B-4167-BD91-B20C59310071}" scale="1.000000"/>
	</SceneryObject>
	<!--SceneryObject name: marker2_blue-->
	<SceneryObject lat="47.52368527777400" lon="8.99987055555556" alt="0.00000000000000" pitch="0.000041" bank="-0.000041" heading="63.600051" imageComplexity="VERY_SPARSE" altitudeIsAgl="TRUE" snapToGround="TRUE" snapToNormal="FALSE">
		<LibraryObject name="{06DEA177-373B-4167-BD91-B20C59310071}" scale="1.000000"/>
	</SceneryObject>
	<!--SceneryObject name: marker2_blue-->
	<SceneryObject lat="47.52374729202597" lon="8.99959945503954" alt="0.00000000000000" pitch="0.000014" bank="-0.000014" heading="63.600017" imageComplexity="VERY_SPARSE" altitudeIsAgl="TRUE" snapToGround="TRUE" snapToNormal="FALSE">
		<LibraryObject name="{06DEA177-373B-4167-BD91-B20C59310071}" scale="1.000000"/>
	</SceneryObject>
	<!--SceneryObject name: marker2_blue-->
	<SceneryObject lat="47.52381368756502" lon="8.99984489979868" alt="0.00000000000000" pitch="0.000014" bank="-0.000014" heading="63.600017" imageComplexity="VERY_SPARSE" altitudeIsAgl="TRUE" snapToGround="TRUE" snapToNormal="FALSE">
		<LibraryObject name="{06DEA177-373B-4167-BD91-B20C59310071}" scale="1.000000"/>
	</SceneryObject>
	<!--SceneryObject name: marker2_blue-->
	<SceneryObject lat="47.52430304586228" lon="9.00176021048295" alt="0.00000000000000" pitch="0.000014" bank="-0.000014" heading="63.600017" imageComplexity="VERY_SPARSE" altitudeIsAgl="TRUE" snapToGround="TRUE" snapToNormal="FALSE">
		<LibraryObject name="{06DEA177-373B-4167-BD91-B20C59310071}" scale="1.000000"/>
	</SceneryObject>
	<!--SceneryObject name: marker2_blue-->
	<SceneryObject lat="47.52440764534253" lon="9.00168346331663" alt="0.00000000000000" pitch="0.000014" bank="-0.000014" heading="63.600017" imageComplexity="VERY_SPARSE" altitudeIsAgl="TRUE" snapToGround="TRUE" snapToNormal="FALSE">
		<LibraryObject name="{06DEA177-373B-4167-BD91-B20C59310071}" scale="1.000000"/>
	</SceneryObject>
	<!--SceneryObject name: marker2_blue-->
	<SceneryObject lat="47.52453888888512" lon="9.00248305555555" alt="0.00000000000000" pitch="0.000041" bank="-0.000041" heading="63.600051" imageComplexity="VERY_SPARSE" altitudeIsAgl="TRUE" snapToGround="TRUE" snapToNormal="FALSE">
		<LibraryObject name="{06DEA177-373B-4167-BD91-B20C59310071}" scale="1.000000"/>
	</SceneryObject>
	<!--SceneryObject name: marker2_blue-->
	<SceneryObject lat="47.52464444444067" lon="9.00240555555555" alt="0.00000000000000" pitch="0.000041" bank="-0.000041" heading="63.600051" imageComplexity="VERY_SPARSE" altitudeIsAgl="TRUE" snapToGround="TRUE" snapToNormal="FALSE">
		<LibraryObject name="{06DEA177-373B-4167-BD91-B20C59310071}" scale="1.000000"/>
	</SceneryObject>
	<!--SceneryObject name: marker2_blue-->
	<SceneryObject lat="47.52475166666292" lon="9.00310805555556" alt="0.00000000000000" pitch="0.000041" bank="-0.000041" heading="63.600051" imageComplexity="VERY_SPARSE" altitudeIsAgl="TRUE" snapToGround="TRUE" snapToNormal="FALSE">
		<LibraryObject name="{06DEA177-373B-4167-BD91-B20C59310071}" scale="1.000000"/>
	</SceneryObject>
	<!--SceneryObject name: marker2_blue-->
	<SceneryObject lat="47.52485916666286" lon="9.00302472222223" alt="0.00000000000000" pitch="0.000041" bank="-0.000041" heading="63.600051" imageComplexity="VERY_SPARSE" altitudeIsAgl="TRUE" snapToGround="TRUE" snapToNormal="FALSE">
		<LibraryObject name="{06DEA177-373B-4167-BD91-B20C59310071}" scale="1.000000"/>
	</SceneryObject>
	<!--SceneryObject name: marker2_blue-->
	<SceneryObject lat="47.52494833332956" lon="9.00368222222222" alt="0.00000000000000" pitch="0.000041" bank="-0.000041" heading="63.600051" imageComplexity="VERY_SPARSE" altitudeIsAgl="TRUE" snapToGround="TRUE" snapToNormal="FALSE">
		<LibraryObject name="{06DEA177-373B-4167-BD91-B20C59310071}" scale="1.000000"/>
	</SceneryObject>
	<!--SceneryObject name: marker2_blue-->
	<SceneryObject lat="47.52504416666290" lon="9.00360666666666" alt="0.00000000000000" pitch="0.000041" bank="-0.000041" heading="63.600051" imageComplexity="VERY_SPARSE" altitudeIsAgl="TRUE" snapToGround="TRUE" snapToNormal="FALSE">
		<LibraryObject name="{06DEA177-373B-4167-BD91-B20C59310071}" scale="1.000000"/>
	</SceneryObject>
	<!--SceneryObject name: marker2_blue-->
	<SceneryObject lat="47.52514722221845" lon="9.00427500000000" alt="0.00000000000000" pitch="0.000041" bank="-0.000041" heading="63.600051" imageComplexity="VERY_SPARSE" altitudeIsAgl="TRUE" snapToGround="TRUE" snapToNormal="FALSE">
		<LibraryObject name="{06DEA177-373B-4167-BD91-B20C59310071}" scale="1.000000"/>
	</SceneryObject>
	<!--SceneryObject name: marker2_blue-->
	<SceneryObject lat="47.52524305555179" lon="9.00419694444444" alt="0.00000000000000" pitch="0.000041" bank="-0.000041" heading="63.600051" imageComplexity="VERY_SPARSE" altitudeIsAgl="TRUE" snapToGround="TRUE" snapToNormal="FALSE">
		<LibraryObject name="{06DEA177-373B-4167-BD91-B20C59310071}" scale="1.000000"/>
	</SceneryObject>
	<!--SceneryObject name: marker2_blue-->
	<SceneryObject lat="47.52535305555176" lon="9.00487694444444" alt="0.00000000000000" pitch="0.000041" bank="-0.000041" heading="63.600051" imageComplexity="VERY_SPARSE" altitudeIsAgl="TRUE" snapToGround="TRUE" snapToNormal="FALSE">
		<LibraryObject name="{06DEA177-373B-4167-BD91-B20C59310071}" scale="1.000000"/>
	</SceneryObject>
	<!--SceneryObject name: marker2_blue-->
	<SceneryObject lat="47.52544805555174" lon="9.00480861111111" alt="0.00000000000000" pitch="0.000041" bank="-0.000041" heading="63.600051" imageComplexity="VERY_SPARSE" altitudeIsAgl="TRUE" snapToGround="TRUE" snapToNormal="FALSE">
		<LibraryObject name="{06DEA177-373B-4167-BD91-B20C59310071}" scale="1.000000"/>
	</SceneryObject>
	<!--SceneryObject name: marker2_blue-->
	<SceneryObject lat="47.52555361110731" lon="9.00547527777778" alt="0.00000000000000" pitch="0.000041" bank="-0.000041" heading="63.600051" imageComplexity="VERY_SPARSE" altitudeIsAgl="TRUE" snapToGround="TRUE" snapToNormal="FALSE">
		<LibraryObject name="{06DEA177-373B-4167-BD91-B20C59310071}" scale="1.000000"/>
	</SceneryObject>
	<!--SceneryObject name: marker2_blue-->
	<SceneryObject lat="47.52564472221846" lon="9.00540527777778" alt="0.00000000000000" pitch="0.000041" bank="-0.000041" heading="63.600051" imageComplexity="VERY_SPARSE" altitudeIsAgl="TRUE" snapToGround="TRUE" snapToNormal="FALSE">
		<LibraryObject name="{06DEA177-373B-4167-BD91-B20C59310071}" scale="1.000000"/>
	</SceneryObject>
	<!--SceneryObject name: marker2_blue-->
	<SceneryObject lat="47.52572055555175" lon="9.00596472222222" alt="0.00000000000000" pitch="0.000041" bank="-0.000041" heading="63.600051" imageComplexity="VERY_SPARSE" altitudeIsAgl="TRUE" snapToGround="TRUE" snapToNormal="FALSE">
		<LibraryObject name="{06DEA177-373B-4167-BD91-B20C59310071}" scale="1.000000"/>
	</SceneryObject>
	<!--SceneryObject name: marker2_blue-->
	<SceneryObject lat="47.52581749999620" lon="9.00590833333333" alt="0.00000000000000" pitch="0.000041" bank="-0.000041" heading="63.600051" imageComplexity="VERY_SPARSE" altitudeIsAgl="TRUE" snapToGround="TRUE" snapToNormal="FALSE">
		<LibraryObject name="{06DEA177-373B-4167-BD91-B20C59310071}" scale="1.000000"/>
	</SceneryObject>
	<!--SceneryObject name: marker2_blue-->
	<SceneryObject lat="47.52595527777399" lon="9.00667000000000" alt="0.00000000000000" pitch="0.000041" bank="-0.000041" heading="63.600051" imageComplexity="VERY_SPARSE" altitudeIsAgl="TRUE" snapToGround="TRUE" snapToNormal="FALSE">
		<LibraryObject name="{06DEA177-373B-4167-BD91-B20C59310071}" scale="1.000000"/>
	</SceneryObject>
	<!--SceneryObject name: marker2_blue-->
	<SceneryObject displayName="marker2_blue (copy)" lat="47.52605166666292" lon="9.00660361111111" alt="0.00000000000000" pitch="0.000068" bank="-0.000068" heading="63.600051" imageComplexity="VERY_SPARSE" altitudeIsAgl="TRUE" snapToGround="TRUE" snapToNormal="FALSE">
		<LibraryObject name="{06DEA177-373B-4167-BD91-B20C59310071}" scale="1.000000"/>
	</SceneryObject>
	<!--SceneryObject name: marker2_orange-->
	<SceneryObject lat="47.52339632951901" lon="9.00037135568387" alt="0.00000000000000" pitch="0.000014" bank="-0.000014" heading="63.600017" imageComplexity="VERY_SPARSE" altitudeIsAgl="TRUE" snapToGround="TRUE" snapToNormal="FALSE">
		<LibraryObject name="{7A47B9E2-92FB-4BC8-946E-E407F97C45D4}" scale="1.000000"/>
	</SceneryObject>
	<!--SceneryObject name: marker2_orange-->
	<SceneryObject lat="47.52340209661644" lon="9.00036695613426" alt="0.00000000000000" pitch="0.000014" bank="-0.000014" heading="63.600017" imageComplexity="VERY_SPARSE" altitudeIsAgl="TRUE" snapToGround="TRUE" snapToNormal="FALSE">
		<LibraryObject name="{7A47B9E2-92FB-4BC8-946E-E407F97C45D4}" scale="1.000000"/>
	</SceneryObject>
	<!--SceneryObject name: marker2_orange-->
	<SceneryObject lat="47.52355664109469" lon="9.00081276152778" alt="0.00000000000000" pitch="0.000014" bank="-0.000014" heading="63.600017" imageComplexity="VERY_SPARSE" altitudeIsAgl="TRUE" snapToGround="TRUE" snapToNormal="FALSE">
		<LibraryObject name="{7A47B9E2-92FB-4BC8-946E-E407F97C45D4}" scale="1.000000"/>
	</SceneryObject>
	<!--SceneryObject name: marker2_orange-->
	<SceneryObject lat="47.52367357636612" lon="9.00016780205457" alt="0.00000000000000" pitch="0.000014" bank="-0.000014" heading="63.600017" imageComplexity="VERY_SPARSE" altitudeIsAgl="TRUE" snapToGround="TRUE" snapToNormal="FALSE">
		<LibraryObject name="{7A47B9E2-92FB-4BC8-946E-E407F97C45D4}" scale="1.000000"/>
	</SceneryObject>
	<!--SceneryObject name: marker2_orange-->
	<SceneryObject lat="47.52367933961919" lon="9.00016351146613" alt="0.00000000000000" pitch="0.000014" bank="-0.000014" heading="63.600017" imageComplexity="VERY_SPARSE" altitudeIsAgl="TRUE" snapToGround="TRUE" snapToNormal="FALSE">
		<LibraryObject name="{7A47B9E2-92FB-4BC8-946E-E407F97C45D4}" scale="1.000000"/>
	</SceneryObject>
	<!--SceneryObject name: marker2_orange-->
	<SceneryObject lat="47.52370625811140" lon="9.00125012870854" alt="0.00000000000000" pitch="0.000014" bank="-0.000014" heading="63.600017" imageComplexity="VERY_SPARSE" altitudeIsAgl="TRUE" snapToGround="TRUE" snapToNormal="FALSE">
		<LibraryObject name="{7A47B9E2-92FB-4BC8-946E-E407F97C45D4}" scale="1.000000"/>
	</SceneryObject>
	<!--SceneryObject name: marker2_orange-->
	<SceneryObject lat="47.52382162386267" lon="9.00062177626877" alt="0.00000000000000" pitch="0.000014" bank="-0.000014" heading="63.600017" imageComplexity="VERY_SPARSE" altitudeIsAgl="TRUE" snapToGround="TRUE" snapToNormal="FALSE">
		<LibraryObject name="{7A47B9E2-92FB-4BC8-946E-E407F97C45D4}" scale="1.000000"/>
	</SceneryObject>
	<!--SceneryObject name: marker2_orange-->
	<SceneryObject lat="47.52396972023443" lon="9.00105995018754" alt="0.00000000000000" pitch="0.000014" bank="-0.000014" heading="63.600017" imageComplexity="VERY_SPARSE" altitudeIsAgl="TRUE" snapToGround="TRUE" snapToNormal="FALSE">
		<LibraryObject name="{7A47B9E2-92FB-4BC8-946E-E407F97C45D4}" scale="1.000000"/>
	</SceneryObject>
	<!--SceneryObject name: marker2_orange-->
	<SceneryObject lat="47.52400872626508" lon="9.00215079630179" alt="0.00000000000000" pitch="0.000014" bank="-0.000014" heading="63.600017" imageComplexity="VERY_SPARSE" altitudeIsAgl="TRUE" snapToGround="TRUE" snapToNormal="FALSE">
		<LibraryObject name="{7A47B9E2-92FB-4BC8-946E-E407F97C45D4}" scale="1.000000"/>
	</SceneryObject>
	<!--SceneryObject name: marker2_orange-->
	<SceneryObject lat="47.52426936967920" lon="9.00195382332748" alt="0.00000000000000" pitch="0.000014" bank="-0.000014" heading="63.600017" imageComplexity="VERY_SPARSE" altitudeIsAgl="TRUE" snapToGround="TRUE" snapToNormal="FALSE">
		<LibraryObject name="{7A47B9E2-92FB-4BC8-946E-E407F97C45D4}" scale="1.000000"/>
	</SceneryObject>
	<!--SceneryObject name: marker2_orange-->
	<SceneryObject lat="47.52500927752339" lon="9.00513923909772" alt="0.00000000000000" pitch="0.000014" bank="-0.000014" heading="63.600017" imageComplexity="VERY_SPARSE" altitudeIsAgl="TRUE" snapToGround="TRUE" snapToNormal="FALSE">
		<LibraryObject name="{7A47B9E2-92FB-4BC8-946E-E407F97C45D4}" scale="1.000000"/>
	</SceneryObject>
	<!--SceneryObject name: marker2_orange-->
	<SceneryObject lat="47.52516591285639" lon="9.00558081743839" alt="0.00000000000000" pitch="0.000014" bank="-0.000014" heading="63.600017" imageComplexity="VERY_SPARSE" altitudeIsAgl="TRUE" snapToGround="TRUE" snapToNormal="FALSE">
		<LibraryObject name="{7A47B9E2-92FB-4BC8-946E-E407F97C45D4}" scale="1.000000"/>
	</SceneryObject>
	<!--SceneryObject name: marker2_orange-->
	<SceneryObject lat="47.52528021999482" lon="9.00496033680847" alt="0.00000000000000" pitch="0.000014" bank="-0.000014" heading="63.600017" imageComplexity="VERY_SPARSE" altitudeIsAgl="TRUE" snapToGround="TRUE" snapToNormal="FALSE">
		<LibraryObject name="{7A47B9E2-92FB-4BC8-946E-E407F97C45D4}" scale="1.000000"/>
	</SceneryObject>
	<!--SceneryObject name: marker2_orange-->
	<SceneryObject lat="47.52531490971098" lon="9.00602528609721" alt="0.00000000000000" pitch="0.000014" bank="-0.000014" heading="63.600017" imageComplexity="VERY_SPARSE" altitudeIsAgl="TRUE" snapToGround="TRUE" snapToNormal="FALSE">
		<LibraryObject name="{7A47B9E2-92FB-4BC8-946E-E407F97C45D4}" scale="1.000000"/>
	</SceneryObject>
	<!--SceneryObject name: marker2_orange-->
	<SceneryObject lat="47.52543094095370" lon="9.00541698535627" alt="0.00000000000000" pitch="0.000014" bank="-0.000014" heading="63.600017" imageComplexity="VERY_SPARSE" altitudeIsAgl="TRUE" snapToGround="TRUE" snapToNormal="FALSE">
		<LibraryObject name="{7A47B9E2-92FB-4BC8-946E-E407F97C45D4}" scale="1.000000"/>
	</SceneryObject>
	<!--SceneryObject name: marker2_orange-->
	<SceneryObject lat="47.52546862285282" lon="9.00647616270952" alt="0.00000000000000" pitch="0.000014" bank="-0.000014" heading="63.600017" imageComplexity="VERY_SPARSE" altitudeIsAgl="TRUE" snapToGround="TRUE" snapToNormal="FALSE">
		<LibraryObject name="{7A47B9E2-92FB-4BC8-946E-E407F97C45D4}" scale="1.000000"/>
	</SceneryObject>
	<!--SceneryObject name: marker2_orange-->
	<SceneryObject lat="47.52557738814890" lon="9.00584655295771" alt="0.00000000000000" pitch="0.000014" bank="-0.000014" heading="63.600017" imageComplexity="VERY_SPARSE" altitudeIsAgl="TRUE" snapToGround="TRUE" snapToNormal="FALSE">
		<LibraryObject name="{7A47B9E2-92FB-4BC8-946E-E407F97C45D4}" scale="1.000000"/>
	</SceneryObject>
	<!--SceneryObject name: marker2_orange-->
	<SceneryObject lat="47.52561423827829" lon="9.00691140753412" alt="0.00000000000000" pitch="0.000014" bank="-0.000014" heading="63.600017" imageComplexity="VERY_SPARSE" altitudeIsAgl="TRUE" snapToGround="TRUE" snapToNormal="FALSE">
		<LibraryObject name="{7A47B9E2-92FB-4BC8-946E-E407F97C45D4}" scale="1.000000"/>
	</SceneryObject>
	<!--SceneryObject name: marker2_orange-->
	<SceneryObject lat="47.52572365526667" lon="9.00627452887490" alt="0.00000000000000" pitch="0.000014" bank="-0.000014" heading="63.600017" imageComplexity="VERY_SPARSE" altitudeIsAgl="TRUE" snapToGround="TRUE" snapToNormal="FALSE">
		<LibraryObject name="{7A47B9E2-92FB-4BC8-946E-E407F97C45D4}" scale="1.000000"/>
	</SceneryObject>
	<!--SceneryObject name: marker2_orange-->
	<SceneryObject lat="47.52587384331224" lon="9.00671643788855" alt="0.00000000000000" pitch="0.000014" bank="-0.000014" heading="63.600017" imageComplexity="VERY_SPARSE" altitudeIsAgl="TRUE" snapToGround="TRUE" snapToNormal="FALSE">
		<LibraryObject name="{7A47B9E2-92FB-4BC8-946E-E407F97C45D4}" scale="1.000000"/>
	</SceneryObject>
	<!--SceneryObject name: marker2_white-->
	<SceneryObject lat="47.52315623943174" lon="8.99960061767289" alt="0.00000000000000" pitch="0.003039" bank="-0.003039" heading="63.600017" imageComplexity="VERY_SPARSE" altitudeIsAgl="TRUE" snapToGround="TRUE" snapToNormal="FALSE">
		<LibraryObject name="{5870238E-081D-449F-993C-A338EC22B624}" scale="1.000000"/>
	</SceneryObject>
	<!--SceneryObject name: marker2_white-->
	<SceneryObject lat="47.52340524205179" lon="8.99941618709813" alt="0.00000000000000" pitch="0.003039" bank="-0.003039" heading="63.600017" imageComplexity="VERY_SPARSE" altitudeIsAgl="TRUE" snapToGround="TRUE" snapToNormal="FALSE">
		<LibraryObject name="{5870238E-081D-449F-993C-A338EC22B624}" scale="1.000000"/>
	</SceneryObject>
	<!--SceneryObject name: marker2_white-->
	<SceneryObject lat="47.52340785594647" lon="9.00036264126322" alt="0.00000000000000" pitch="0.003039" bank="-0.003039" heading="63.600017" imageComplexity="VERY_SPARSE" altitudeIsAgl="TRUE" snapToGround="TRUE" snapToNormal="FALSE">
		<LibraryObject name="{5870238E-081D-449F-993C-A338EC22B624}" scale="1.000000"/>
	</SceneryObject>
	<!--SceneryObject name: marker2_white-->
	<SceneryObject lat="47.52341362873378" lon="9.00035852960461" alt="0.00000000000000" pitch="0.003039" bank="-0.003039" heading="63.600017" imageComplexity="VERY_SPARSE" altitudeIsAgl="TRUE" snapToGround="TRUE" snapToNormal="FALSE">
		<LibraryObject name="{5870238E-081D-449F-993C-A338EC22B624}" scale="1.000000"/>
	</SceneryObject>
	<!--SceneryObject name: marker2_white-->
	<SceneryObject lat="47.52356277777402" lon="9.00080750000000" alt="0.00000000000000" pitch="0.003039" bank="-0.003039" heading="63.600051" imageComplexity="VERY_SPARSE" altitudeIsAgl="TRUE" snapToGround="TRUE" snapToNormal="FALSE">
		<LibraryObject name="{5870238E-081D-449F-993C-A338EC22B624}" scale="1.000000"/>
	</SceneryObject>
	<!--SceneryObject name: marker2_white-->
	<SceneryObject lat="47.52366206149659" lon="9.00017654737925" alt="0.00000000000000" pitch="0.003039" bank="-0.003039" heading="63.600017" imageComplexity="VERY_SPARSE" altitudeIsAgl="TRUE" snapToGround="TRUE" snapToNormal="FALSE">
		<LibraryObject name="{5870238E-081D-449F-993C-A338EC22B624}" scale="1.000000"/>
	</SceneryObject>
	<!--SceneryObject name: marker2_white-->
	<SceneryObject lat="47.52366776540702" lon="9.00017212656727" alt="0.00000000000000" pitch="0.003039" bank="-0.003039" heading="63.600017" imageComplexity="VERY_SPARSE" altitudeIsAgl="TRUE" snapToGround="TRUE" snapToNormal="FALSE">
		<LibraryObject name="{5870238E-081D-449F-993C-A338EC22B624}" scale="1.000000"/>
	</SceneryObject>
	<!--SceneryObject name: marker2_white-->
	<SceneryObject lat="47.52371194444070" lon="9.00124583333333" alt="0.00000000000000" pitch="0.003039" bank="-0.003039" heading="63.600051" imageComplexity="VERY_SPARSE" altitudeIsAgl="TRUE" snapToGround="TRUE" snapToNormal="FALSE">
		<LibraryObject name="{5870238E-081D-449F-993C-A338EC22B624}" scale="1.000000"/>
	</SceneryObject>
	<!--SceneryObject name: marker2_white-->
	<SceneryObject lat="47.52381583332954" lon="9.00062611111111" alt="0.00000000000000" pitch="0.003039" bank="-0.003039" heading="63.600051" imageComplexity="VERY_SPARSE" altitudeIsAgl="TRUE" snapToGround="TRUE" snapToNormal="FALSE">
		<LibraryObject name="{5870238E-081D-449F-993C-A338EC22B624}" scale="1.000000"/>
	</SceneryObject>
	<!--SceneryObject name: marker2_white-->
	<SceneryObject lat="47.52396388888512" lon="9.00106444444445" alt="0.00000000000000" pitch="0.003039" bank="-0.003039" heading="63.600051" imageComplexity="VERY_SPARSE" altitudeIsAgl="TRUE" snapToGround="TRUE" snapToNormal="FALSE">
		<LibraryObject name="{5870238E-081D-449F-993C-A338EC22B624}" scale="1.000000"/>
	</SceneryObject>
	<!--SceneryObject name: marker2_white-->
	<SceneryObject lat="47.52401472221845" lon="9.00214694444445" alt="0.00000000000000" pitch="0.003039" bank="-0.003039" heading="63.600051" imageComplexity="VERY_SPARSE" altitudeIsAgl="TRUE" snapToGround="TRUE" snapToNormal="FALSE">
		<LibraryObject name="{5870238E-081D-449F-993C-A338EC22B624}" scale="1.000000"/>
	</SceneryObject>
	<!--SceneryObject name: marker2_white-->
	<SceneryObject lat="47.52414958974033" lon="9.00252669296056" alt="0.00000000000000" pitch="0.003039" bank="-0.003039" heading="63.600017" imageComplexity="VERY_SPARSE" altitudeIsAgl="TRUE" snapToGround="TRUE" snapToNormal="FALSE">
		<LibraryObject name="{5870238E-081D-449F-993C-A338EC22B624}" scale="1.000000"/>
	</SceneryObject>
	<!--SceneryObject name: marker2_white-->
	<SceneryObject lat="47.52426333332957" lon="9.00195833333333" alt="0.00000000000000" pitch="0.003039" bank="-0.003039" heading="63.600051" imageComplexity="VERY_SPARSE" altitudeIsAgl="TRUE" snapToGround="TRUE" snapToNormal="FALSE">
		<LibraryObject name="{5870238E-081D-449F-993C-A338EC22B624}" scale="1.000000"/>
	</SceneryObject>
	<!--SceneryObject name: marker2_white-->
	<SceneryObject lat="47.52432451975326" lon="9.00304708165305" alt="0.00000000000000" pitch="0.003039" bank="-0.003039" heading="63.600017" imageComplexity="VERY_SPARSE" altitudeIsAgl="TRUE" snapToGround="TRUE" snapToNormal="FALSE">
		<LibraryObject name="{5870238E-081D-449F-993C-A338EC22B624}" scale="1.000000"/>
	</SceneryObject>
	<!--SceneryObject name: marker2_white-->
	<SceneryObject lat="47.52439685748899" lon="9.00234523037093" alt="0.00000000000000" pitch="0.003039" bank="-0.003039" heading="63.600017" imageComplexity="VERY_SPARSE" altitudeIsAgl="TRUE" snapToGround="TRUE" snapToNormal="FALSE">
		<LibraryObject name="{5870238E-081D-449F-993C-A338EC22B624}" scale="1.000000"/>
	</SceneryObject>
	<!--SceneryObject name: marker2_white-->
	<SceneryObject lat="47.52449986765414" lon="9.00356872253864" alt="0.00000000000000" pitch="0.003039" bank="-0.003039" heading="63.600017" imageComplexity="VERY_SPARSE" altitudeIsAgl="TRUE" snapToGround="TRUE" snapToNormal="FALSE">
		<LibraryObject name="{5870238E-081D-449F-993C-A338EC22B624}" scale="1.000000"/>
	</SceneryObject>
	<!--SceneryObject name: marker2_white-->
	<SceneryObject lat="47.52457194067092" lon="9.00286486735214" alt="0.00000000000000" pitch="0.003039" bank="-0.003039" heading="63.600017" imageComplexity="VERY_SPARSE" altitudeIsAgl="TRUE" snapToGround="TRUE" snapToNormal="FALSE">
		<LibraryObject name="{5870238E-081D-449F-993C-A338EC22B624}" scale="1.000000"/>
	</SceneryObject>
	<!--SceneryObject name: marker2_white-->
	<SceneryObject lat="47.52462027777403" lon="9.00393916666667" alt="0.00000000000000" pitch="0.003039" bank="-0.003039" heading="63.600051" imageComplexity="VERY_SPARSE" altitudeIsAgl="TRUE" snapToGround="TRUE" snapToNormal="FALSE">
		<LibraryObject name="{5870238E-081D-449F-993C-A338EC22B624}" scale="1.000000"/>
	</SceneryObject>
	<!--SceneryObject name: marker2_white-->
	<SceneryObject lat="47.52474756254371" lon="9.00338773885264" alt="0.00000000000000" pitch="0.003039" bank="-0.003039" heading="63.600017" imageComplexity="VERY_SPARSE" altitudeIsAgl="TRUE" snapToGround="TRUE" snapToNormal="FALSE">
		<LibraryObject name="{5870238E-081D-449F-993C-A338EC22B624}" scale="1.000000"/>
	</SceneryObject>
	<!--SceneryObject name: marker2_white-->
	<SceneryObject lat="47.52481722221844" lon="9.00452750000000" alt="0.00000000000000" pitch="0.003039" bank="-0.003039" heading="63.600051" imageComplexity="VERY_SPARSE" altitudeIsAgl="TRUE" snapToGround="TRUE" snapToNormal="FALSE">
		<LibraryObject name="{5870238E-081D-449F-993C-A338EC22B624}" scale="1.000000"/>
	</SceneryObject>
	<!--SceneryObject name: marker2_white-->
	<SceneryObject lat="47.52486999999623" lon="9.00377555555555" alt="0.00000000000000" pitch="0.003039" bank="-0.003039" heading="63.600051" imageComplexity="VERY_SPARSE" altitudeIsAgl="TRUE" snapToGround="TRUE" snapToNormal="FALSE">
		<LibraryObject name="{5870238E-081D-449F-993C-A338EC22B624}" scale="1.000000"/>
	</SceneryObject>
	<!--SceneryObject name: marker2_white-->
	<SceneryObject lat="47.52501499999623" lon="9.00513472222222" alt="0.00000000000000" pitch="0.003039" bank="-0.003039" heading="63.600051" imageComplexity="VERY_SPARSE" altitudeIsAgl="TRUE" snapToGround="TRUE" snapToNormal="FALSE">
		<LibraryObject name="{5870238E-081D-449F-993C-A338EC22B624}" scale="1.000000"/>
	</SceneryObject>
	<!--SceneryObject name: marker2_white-->
	<SceneryObject lat="47.52506527777400" lon="9.00435222222223" alt="0.00000000000000" pitch="0.003039" bank="-0.003039" heading="63.600051" imageComplexity="VERY_SPARSE" altitudeIsAgl="TRUE" snapToGround="TRUE" snapToNormal="FALSE">
		<LibraryObject name="{5870238E-081D-449F-993C-A338EC22B624}" scale="1.000000"/>
	</SceneryObject>
	<!--SceneryObject name: marker2_white-->
	<SceneryObject lat="47.52517166666287" lon="9.00557666666667" alt="0.00000000000000" pitch="0.003039" bank="-0.003039" heading="63.600051" imageComplexity="VERY_SPARSE" altitudeIsAgl="TRUE" snapToGround="TRUE" snapToNormal="FALSE">
		<LibraryObject name="{5870238E-081D-449F-993C-A338EC22B624}" scale="1.000000"/>
	</SceneryObject>
	<!--SceneryObject name: marker2_white-->
	<SceneryObject lat="47.52527416666285" lon="9.00496500000000" alt="0.00000000000000" pitch="0.003039" bank="-0.003039" heading="63.600051" imageComplexity="VERY_SPARSE" altitudeIsAgl="TRUE" snapToGround="TRUE" snapToNormal="FALSE">
		<LibraryObject name="{5870238E-081D-449F-993C-A338EC22B624}" scale="1.000000"/>
	</SceneryObject>
	<!--SceneryObject name: marker2_white-->
	<SceneryObject lat="47.52532083332957" lon="9.00602055555556" alt="0.00000000000000" pitch="0.003039" bank="-0.003039" heading="63.600051" imageComplexity="VERY_SPARSE" altitudeIsAgl="TRUE" snapToGround="TRUE" snapToNormal="FALSE">
		<LibraryObject name="{5870238E-081D-449F-993C-A338EC22B624}" scale="1.000000"/>
	</SceneryObject>
	<!--SceneryObject name: marker2_white-->
	<SceneryObject lat="47.52542499999625" lon="9.00542138888889" alt="0.00000000000000" pitch="0.003039" bank="-0.003039" heading="63.600051" imageComplexity="VERY_SPARSE" altitudeIsAgl="TRUE" snapToGround="TRUE" snapToNormal="FALSE">
		<LibraryObject name="{5870238E-081D-449F-993C-A338EC22B624}" scale="1.000000"/>
	</SceneryObject>
	<!--SceneryObject name: marker2_white-->
	<SceneryObject lat="47.52547472221847" lon="9.00647138888889" alt="0.00000000000000" pitch="0.003039" bank="-0.003039" heading="63.600051" imageComplexity="VERY_SPARSE" altitudeIsAgl="TRUE" snapToGround="TRUE" snapToNormal="FALSE">
		<LibraryObject name="{5870238E-081D-449F-993C-A338EC22B624}" scale="1.000000"/>
	</SceneryObject>
	<!--SceneryObject name: marker2_white-->
	<SceneryObject lat="47.52557138888508" lon="9.00585083333334" alt="0.00000000000000" pitch="0.003039" bank="-0.003039" heading="63.600051" imageComplexity="VERY_SPARSE" altitudeIsAgl="TRUE" snapToGround="TRUE" snapToNormal="FALSE">
		<LibraryObject name="{5870238E-081D-449F-993C-A338EC22B624}" scale="1.000000"/>
	</SceneryObject>
	<!--SceneryObject name: marker2_white-->
	<SceneryObject lat="47.52561997854144" lon="9.00690720784655" alt="0.00000000000000" pitch="0.003039" bank="-0.003039" heading="63.600017" imageComplexity="VERY_SPARSE" altitudeIsAgl="TRUE" snapToGround="TRUE" snapToNormal="FALSE">
		<LibraryObject name="{5870238E-081D-449F-993C-A338EC22B624}" scale="1.000000"/>
	</SceneryObject>
	<!--SceneryObject name: marker2_white-->
	<SceneryObject lat="47.52571749999623" lon="9.00627916666667" alt="0.00000000000000" pitch="0.003039" bank="-0.003039" heading="63.600051" imageComplexity="VERY_SPARSE" altitudeIsAgl="TRUE" snapToGround="TRUE" snapToNormal="FALSE">
		<LibraryObject name="{5870238E-081D-449F-993C-A338EC22B624}" scale="1.000000"/>
	</SceneryObject>
	<!--SceneryObject name: marker2_white-->
	<SceneryObject lat="47.52586809013730" lon="9.00672080702091" alt="0.00000000000000" pitch="0.003039" bank="-0.003039" heading="63.600017" imageComplexity="VERY_SPARSE" altitudeIsAgl="TRUE" snapToGround="TRUE" snapToNormal="FALSE">
		<LibraryObject name="{5870238E-081D-449F-993C-A338EC22B624}" scale="1.000000"/>
	</SceneryObject>
	<Rectangle width="704.999939" falloff="50.000000" surface="{47D48287-3ADE-4FC5-8BEC-B6B36901E612}" priority="12" latitude="47.52281796335844" longitude="9.00340833977389" altitude="514.98403835669160" latitude2="47.52646066973410" longitude2="9.00340833977389" altitude2="514.98728084657341">
		<Heightmap width="235" data="513.260010 513.250000 513.260010 513.280029 513.330017 513.380005 513.460022 513.530029 513.539978 513.510010 513.479980 513.450012 513.409973 513.409973 513.400024 513.390015 513.409973 513.400024 513.400024 513.390015 513.349976 513.380005 513.450012 513.489990 513.559998 513.609985 513.669983 513.719971 513.739990 513.729980 513.729980 513.729980 513.719971 513.659973 513.619995 513.590027 513.590027 513.630005 513.659973 513.690002 513.710022 513.700012 513.679993 513.630005 513.609985 513.609985 513.570007 513.520020 513.500000 513.489990 513.460022 513.419983 513.380005 513.330017 513.270020 513.239990 513.210022 513.190002 513.150024 513.109985 513.080017 513.080017 513.090027 513.099976 513.169983 513.250000 513.359985 513.390015 513.140015 513.000000 512.969971 512.960022 513.020020 513.099976 513.210022 513.250000 513.280029 513.289978 513.280029 513.289978 513.289978 513.309998 513.309998 513.309998 513.299988 513.239990 513.210022 513.190002 513.169983 513.150024 513.140015 513.200012 513.200012 513.219971 513.239990 513.250000 513.210022 513.229980 513.210022 513.150024 513.159973 513.179993 513.190002 513.190002 513.210022 513.219971 513.229980 513.239990 513.239990 513.260010 513.270020 513.309998 513.340027 513.359985 513.380005 513.450012 513.469971 513.460022 513.469971 513.320007 513.400024 513.549988 513.650024 513.679993 513.799988 513.840027 513.840027 513.820007 513.760010 513.780029 513.700012 513.700012 513.700012 513.700012 513.700012 513.719971 513.729980 513.710022 513.679993 513.679993 513.719971 513.739990 513.789978 513.750000 513.739990 513.739990 513.770020 513.809998 513.830017 513.830017 513.840027 513.840027 513.840027 513.880005 513.900024 513.950012 513.979980 513.989990 514.000000 514.030029 514.070007 514.090027 514.109985 514.200012 514.289978 514.369995 514.409973 514.460022 514.520020 514.580017 514.640015 514.690002 514.809998 514.799988 514.690002 514.700012 514.719971 514.780029 514.820007 514.820007 514.809998 514.830017 514.849976 514.880005 514.880005 514.909973 514.960022 515.000000 515.039978 515.049988 515.070007 515.099976 515.109985 515.109985 515.119995 515.130005 515.169983 515.219971 515.260010 515.309998 515.369995 515.400024 515.429993 515.479980 515.549988 515.580017 515.609985 515.640015 515.659973 515.690002 515.729980 515.770020 515.820007 515.869995 515.960022 516.049988 516.130005 516.210022 516.270020 516.309998 516.359985 516.419983 516.479980 516.539978 516.599976 516.640015 516.679993 516.710022 516.760010 516.809998 516.869995 516.950012 517.020020 517.080017 517.119995 513.270020 513.250000 513.229980 513.250000 513.280029 513.280029 513.280029 513.309998 513.419983 513.489990 513.539978 513.520020 513.489990 513.460022 513.429993 513.409973 513.400024 513.409973 513.450012 513.440002 513.400024 513.409973 513.460022 513.479980 513.530029 513.599976 513.690002 513.729980 513.739990 513.750000 513.760010 513.760010 513.729980 513.669983 513.630005 513.609985 513.619995 513.650024 513.659973 513.679993 513.710022 513.710022 513.690002 513.650024 513.650024 513.679993 513.659973 513.599976 513.580017 513.539978 513.469971 513.419983 513.390015 513.340027 513.280029 513.239990 513.200012 513.179993 513.159973 513.119995 513.090027 513.119995 513.190002 513.219971 513.299988 513.400024 513.469971 513.369995 513.130005 513.039978 513.030029 513.020020 513.049988 513.020020 513.039978 513.169983 513.260010 513.309998 513.340027 513.340027 513.320007 513.309998 513.309998 513.320007 513.299988 513.280029 513.250000 513.239990 513.229980 513.219971 513.219971 513.200012 513.169983 513.169983 513.179993 513.219971 513.229980 513.239990 513.250000 513.229980 513.179993 513.179993 513.179993 513.190002 513.219971 513.239990 513.250000 513.250000 513.260010 513.270020 513.250000 513.250000 513.299988 513.349976 513.359985 513.390015 513.469971 513.609985 513.429993 513.320007 513.609985 513.609985 513.640015 513.690002 513.710022 513.789978 513.780029 513.739990 513.710022 513.710022 513.679993 513.719971 513.719971 513.700012 513.710022 513.729980 513.719971 513.710022 513.700012 513.710022 513.729980 513.739990 513.760010 513.750000 513.719971 513.729980 513.770020 513.809998 513.840027 513.869995 513.849976 513.859985 513.880005 513.909973 513.950012 513.969971 514.000000 514.000000 514.010010 514.030029 514.090027 514.119995 514.159973 514.219971 514.250000 514.340027 514.400024 514.479980 514.539978 514.580017 514.640015 514.739990 514.789978 514.739990 514.630005 514.909973 514.950012 514.780029 514.820007 514.880005 514.900024 514.890015 514.890015 514.890015 514.900024 514.909973 514.960022 515.010010 515.059998 515.070007 515.099976 515.130005 515.130005 515.130005 515.119995 515.140015 515.179993 515.219971 515.270020 515.309998 515.359985 515.409973 515.479980 515.520020 515.559998 515.599976 515.630005 515.659973 515.690002 515.729980 515.750000 515.780029 515.849976 515.919983 515.979980 516.039978 516.090027 516.159973 516.229980 516.280029 516.309998 516.359985 516.429993 516.479980 516.530029 516.590027 516.640015 516.669983 516.710022 516.760010 516.820007 516.890015 516.960022 517.000000 517.039978 513.309998 513.250000 513.219971 513.239990 513.280029 513.270020 513.280029 513.289978 513.299988 513.340027 513.390015 513.460022 513.520020 513.539978 513.500000 513.479980 513.419983 513.440002 513.489990 513.489990 513.440002 513.450012 513.489990 513.500000 513.549988 513.599976 513.679993 513.739990 513.770020 513.770020 513.780029 513.780029 513.760010 513.710022 513.669983 513.630005 513.659973 513.679993 513.669983 513.659973 513.690002 513.700012 513.669983 513.650024 513.669983 513.690002 513.690002 513.669983 513.619995 513.570007 513.489990 513.429993 513.400024 513.369995 513.299988 513.250000 513.210022 513.169983 513.140015 513.099976 513.099976 513.159973 513.229980 513.270020 513.409973 513.549988 513.539978 513.340027 513.099976 513.070007 513.039978 513.059998 513.109985 513.090027 513.030029 513.039978 513.109985 513.150024 513.260010 513.330017 513.320007 513.299988 513.320007 513.359985 513.320007 513.299988 513.270020 513.270020 513.239990 513.239990 513.250000 513.239990 513.190002 513.179993 513.179993 513.210022 513.210022 513.239990 513.229980 513.250000 513.190002 513.190002 513.200012 513.210022 513.229980 513.270020 513.260010 513.250000 513.260010 513.280029 513.280029 513.280029 513.270020 513.280029 513.340027 513.369995 513.419983 513.429993 513.260010 513.429993 513.659973 513.700012 513.650024 513.640015 513.640015 513.690002 513.669983 513.650024 513.619995 513.619995 513.650024 513.719971 513.739990 513.719971 513.710022 513.729980 513.719971 513.710022 513.729980 513.739990 513.729980 513.750000 513.729980 513.729980 513.719971 513.739990 513.760010 513.789978 513.830017 513.869995 513.849976 513.869995 513.900024 513.940002 513.979980 514.000000 514.030029 514.020020 514.010010 514.039978 514.099976 514.150024 514.190002 514.229980 514.270020 514.309998 514.349976 514.419983 514.500000 514.570007 514.690002 514.760010 514.750000 514.659973 514.729980 515.239990 515.409973 515.179993 514.859985 514.859985 514.950012 514.989990 514.979980 514.940002 514.919983 514.919983 514.960022 515.000000 515.049988 515.059998 515.090027 515.130005 515.130005 515.119995 515.119995 515.140015 515.169983 515.229980 515.289978 515.320007 515.359985 515.419983 515.489990 515.559998 515.609985 515.619995 515.650024 515.700012 515.750000 515.789978 515.830017 515.830017 515.869995 515.940002 516.000000 516.049988 516.119995 516.150024 516.190002 516.239990 516.289978 516.330017 516.390015 516.440002 516.510010 516.549988 516.619995 516.650024 516.669983 516.710022 516.739990 516.789978 516.840027 516.869995 516.919983 513.320007 513.239990 513.219971 513.219971 513.270020 513.280029 513.299988 513.320007 513.320007 513.349976 513.380005 513.380005 513.409973 513.539978 513.570007 513.530029 513.530029 513.530029 513.539978 513.559998 513.530029 513.520020 513.539978 513.549988 513.590027 513.630005 513.700012 513.739990 513.770020 513.760010 513.780029 513.780029 513.750000 513.719971 513.710022 513.669983 513.679993 513.690002 513.690002 513.669983 513.690002 513.679993 513.640015 513.640015 513.669983 513.700012 513.729980 513.710022 513.659973 513.630005 513.590027 513.510010 513.429993 513.390015 513.309998 513.250000 513.210022 513.179993 513.140015 513.099976 513.109985 513.169983 513.219971 513.280029 513.450012 513.599976 513.549988 513.260010 513.080017 513.179993 513.059998 513.010010 513.080017 513.099976 513.109985 513.099976 513.080017 513.030029 513.090027 513.190002 513.239990 513.309998 513.390015 513.419983 513.380005 513.380005 513.380005 513.330017 513.299988 513.280029 513.260010 513.260010 513.229980 513.190002 513.179993 513.179993 513.190002 513.210022 513.229980 513.229980 513.200012 513.190002 513.190002 513.210022 513.229980 513.260010 513.260010 513.260010 513.260010 513.280029 513.289978 513.299988 513.299988 513.289978 513.299988 513.330017 513.440002 513.450012 513.349976 513.539978 513.580017 513.619995 513.599976 513.599976 513.619995 513.590027 513.580017 513.570007 513.580017 513.590027 513.630005 513.679993 513.700012 513.700012 513.719971 513.729980 513.710022 513.700012 513.739990 513.750000 513.729980 513.739990 513.750000 513.760010 513.760010 513.750000 513.760010 513.780029 513.799988 513.809998 513.849976 513.869995 513.909973 513.950012 513.969971 514.000000 514.039978 514.049988 514.030029 514.049988 514.090027 514.130005 514.150024 514.200012 514.260010 514.309998 514.369995 514.450012 514.520020 514.599976 514.719971 514.849976 514.929993 514.679993 515.039978 515.309998 515.400024 515.460022 515.349976 514.989990 514.890015 515.000000 515.030029 515.070007 515.000000 514.960022 514.969971 515.010010 515.039978 515.059998 515.090027 515.109985 515.130005 515.119995 515.130005 515.140015 515.169983 515.219971 515.280029 515.330017 515.380005 515.419983 515.479980 515.549988 515.630005 515.669983 515.690002 515.729980 515.770020 515.820007 515.869995 515.890015 515.919983 515.950012 516.010010 516.059998 516.140015 516.179993 516.190002 516.210022 516.250000 516.299988 516.369995 516.419983 516.479980 516.530029 516.570007 516.590027 516.590027 516.609985 516.630005 516.659973 516.710022 516.729980 516.770020 513.349976 513.250000 513.210022 513.219971 513.260010 513.260010 513.289978 513.309998 513.330017 513.369995 513.400024 513.390015 513.369995 513.419983 513.440002 513.440002 513.489990 513.539978 513.580017 513.599976 513.599976 513.580017 513.570007 513.590027 513.619995 513.650024 513.690002 513.729980 513.750000 513.770020 513.780029 513.770020 513.750000 513.739990 513.750000 513.710022 513.690002 513.710022 513.710022 513.710022 513.729980 513.690002 513.650024 513.679993 513.729980 513.750000 513.770020 513.760010 513.719971 513.690002 513.659973 513.580017 513.450012 513.359985 513.280029 513.229980 513.190002 513.159973 513.109985 513.109985 513.140015 513.169983 513.229980 513.320007 513.500000 513.609985 513.429993 513.190002 513.059998 513.000000 512.989990 512.969971 513.000000 513.049988 513.119995 513.150024 513.109985 513.030029 513.039978 513.130005 513.030029 513.099976 513.250000 513.369995 513.400024 513.400024 513.440002 513.390015 513.369995 513.340027 513.320007 513.309998 513.270020 513.229980 513.229980 513.210022 513.200012 513.190002 513.179993 513.169983 513.190002 513.190002 513.200012 513.190002 513.210022 513.239990 513.250000 513.250000 513.260010 513.280029 513.280029 513.289978 513.309998 513.309998 513.330017 513.349976 513.340027 513.460022 513.479980 513.510010 513.489990 513.520020 513.530029 513.559998 513.590027 513.570007 513.510010 513.489990 513.530029 513.580017 513.640015 513.669983 513.679993 513.679993 513.710022 513.719971 513.719971 513.700012 513.719971 513.710022 513.719971 513.729980 513.750000 513.760010 513.789978 513.789978 513.780029 513.780029 513.789978 513.809998 513.820007 513.869995 513.919983 513.960022 513.989990 514.010010 514.049988 514.049988 514.070007 514.070007 514.070007 514.090027 514.130005 514.190002 514.250000 514.320007 514.409973 514.489990 514.559998 514.659973 514.729980 514.880005 514.900024 514.880005 515.250000 515.250000 515.289978 515.440002 515.580017 515.429993 514.929993 514.900024 515.010010 515.080017 515.099976 515.070007 515.030029 515.039978 515.049988 515.059998 515.080017 515.109985 515.119995 515.119995 515.130005 515.150024 515.169983 515.219971 515.280029 515.330017 515.380005 515.429993 515.500000 515.549988 515.619995 515.679993 515.750000 515.780029 515.789978 515.849976 515.909973 515.919983 515.950012 515.979980 516.020020 516.080017 516.150024 516.210022 516.239990 516.239990 516.239990 516.260010 516.320007 516.400024 516.450012 516.489990 516.520020 516.549988 516.539978 516.549988 516.559998 516.559998 516.580017 516.609985 516.659973 513.359985 513.270020 513.210022 513.210022 513.239990 513.250000 513.280029 513.299988 513.330017 513.359985 513.390015 513.380005 513.359985 513.340027 513.340027 513.369995 513.400024 513.440002 513.489990 513.549988 513.640015 513.679993 513.669983 513.679993 513.679993 513.700012 513.710022 513.719971 513.739990 513.750000 513.770020 513.770020 513.750000 513.770020 513.799988 513.729980 513.690002 513.710022 513.729980 513.760010 513.780029 513.750000 513.739990 513.770020 513.799988 513.799988 513.809998 513.799988 513.770020 513.729980 513.669983 513.580017 513.440002 513.330017 513.270020 513.210022 513.190002 513.179993 513.169983 513.200012 513.190002 513.200012 513.299988 513.429993 513.580017 513.570007 513.330017 513.140015 513.059998 513.010010 512.989990 512.960022 512.969971 513.020020 513.099976 513.169983 513.109985 513.030029 512.989990 513.010010 513.039978 513.049988 512.979980 513.039978 513.219971 513.349976 513.429993 513.440002 513.429993 513.400024 513.400024 513.400024 513.359985 513.320007 513.299988 513.280029 513.260010 513.229980 513.200012 513.179993 513.190002 513.219971 513.229980 513.210022 513.200012 513.219971 513.229980 513.250000 513.260010 513.260010 513.280029 513.289978 513.309998 513.320007 513.349976 513.349976 513.320007 513.409973 513.400024 513.409973 513.419983 513.409973 513.409973 513.429993 513.450012 513.460022 513.450012 513.460022 513.500000 513.520020 513.559998 513.619995 513.669983 513.659973 513.690002 513.690002 513.710022 513.710022 513.710022 513.729980 513.719971 513.729980 513.760010 513.770020 513.789978 513.789978 513.789978 513.799988 513.799988 513.799988 513.820007 513.859985 513.900024 513.960022 514.000000 514.010010 514.030029 514.059998 514.090027 514.090027 514.099976 514.109985 514.130005 514.190002 514.239990 514.330017 514.419983 514.510010 514.570007 514.679993 514.780029 514.890015 514.789978 515.030029 515.280029 515.270020 515.299988 515.460022 515.609985 515.580017 515.349976 514.900024 514.900024 515.039978 515.130005 515.150024 515.159973 515.119995 515.109985 515.080017 515.080017 515.099976 515.130005 515.140015 515.130005 515.150024 515.179993 515.219971 515.270020 515.330017 515.390015 515.460022 515.520020 515.570007 515.630005 515.690002 515.770020 515.830017 515.859985 515.869995 515.909973 515.919983 515.940002 515.989990 516.039978 516.099976 516.159973 516.229980 516.280029 516.289978 516.289978 516.289978 516.320007 516.359985 516.450012 516.500000 516.510010 516.530029 516.510010 516.500000 516.510010 516.500000 516.530029 516.549988 516.590027 513.400024 513.349976 513.270020 513.229980 513.229980 513.250000 513.270020 513.299988 513.320007 513.349976 513.369995 513.349976 513.340027 513.330017 513.330017 513.340027 513.359985 513.400024 513.419983 513.440002 513.500000 513.609985 513.679993 513.739990 513.750000 513.760010 513.770020 513.770020 513.780029 513.770020 513.780029 513.770020 513.780029 513.799988 513.809998 513.780029 513.760010 513.760010 513.789978 513.799988 513.809998 513.809998 513.809998 513.830017 513.849976 513.840027 513.840027 513.820007 513.789978 513.739990 513.669983 513.580017 513.429993 513.380005 513.320007 513.289978 513.270020 513.270020 513.289978 513.280029 513.260010 513.289978 513.380005 513.539978 513.650024 513.549988 513.229980 513.140015 513.070007 513.020020 512.989990 512.979980 512.979980 513.020020 513.090027 513.169983 513.099976 513.020020 513.030029 513.090027 513.119995 513.109985 513.119995 513.059998 513.030029 513.109985 513.250000 513.359985 513.409973 513.429993 513.460022 513.469971 513.419983 513.390015 513.369995 513.349976 513.309998 513.299988 513.289978 513.260010 513.239990 513.229980 513.229980 513.239990 513.229980 513.229980 513.229980 513.250000 513.270020 513.270020 513.289978 513.299988 513.320007 513.340027 513.369995 513.340027 513.250000 513.330017 513.419983 513.409973 513.419983 513.419983 513.419983 513.429993 513.440002 513.440002 513.450012 513.460022 513.489990 513.510010 513.520020 513.549988 513.580017 513.630005 513.650024 513.669983 513.690002 513.710022 513.760010 513.770020 513.770020 513.789978 513.770020 513.770020 513.820007 513.830017 513.799988 513.809998 513.830017 513.849976 513.849976 513.890015 513.929993 513.979980 514.000000 514.000000 514.030029 514.070007 514.090027 514.099976 514.109985 514.150024 514.150024 514.179993 514.250000 514.369995 514.440002 514.539978 514.609985 514.739990 515.359985 515.890015 515.630005 515.320007 515.390015 515.260010 515.090027 515.169983 515.440002 515.539978 515.450012 514.909973 514.830017 514.950012 515.049988 515.169983 515.210022 515.229980 515.190002 515.140015 515.099976 515.109985 515.130005 515.140015 515.159973 515.159973 515.190002 515.229980 515.280029 515.330017 515.390015 515.460022 515.530029 515.599976 515.650024 515.700012 515.760010 515.830017 515.890015 515.909973 515.909973 515.900024 515.940002 516.010010 516.070007 516.130005 516.200012 516.250000 516.289978 516.320007 516.330017 516.330017 516.340027 516.359985 516.429993 516.489990 516.520020 516.520020 516.510010 516.489990 516.489990 516.479980 516.510010 516.510010 516.539978 513.419983 513.409973 513.340027 513.270020 513.270020 513.280029 513.280029 513.299988 513.309998 513.340027 513.349976 513.340027 513.320007 513.309998 513.309998 513.320007 513.330017 513.369995 513.390015 513.409973 513.450012 513.489990 513.520020 513.570007 513.659973 513.750000 513.809998 513.830017 513.840027 513.830017 513.840027 513.820007 513.830017 513.849976 513.849976 513.849976 513.840027 513.830017 513.849976 513.849976 513.849976 513.840027 513.830017 513.869995 513.890015 513.869995 513.859985 513.809998 513.789978 513.729980 513.679993 513.570007 513.460022 513.369995 513.309998 513.340027 513.359985 513.369995 513.419983 513.359985 513.340027 513.400024 513.500000 513.630005 513.669983 513.479980 513.219971 513.150024 513.099976 513.049988 513.030029 513.020020 513.039978 513.070007 513.109985 513.169983 513.099976 513.070007 513.140015 513.159973 513.150024 513.099976 513.090027 513.109985 513.080017 513.080017 513.049988 513.049988 513.150024 513.299988 513.369995 513.409973 513.400024 513.419983 513.409973 513.400024 513.369995 513.349976 513.340027 513.340027 513.340027 513.309998 513.260010 513.239990 513.229980 513.229980 513.250000 513.250000 513.260010 513.280029 513.309998 513.330017 513.349976 513.369995 513.359985 513.320007 513.250000 513.390015 513.429993 513.429993 513.429993 513.429993 513.429993 513.419983 513.429993 513.429993 513.429993 513.450012 513.479980 513.510010 513.530029 513.539978 513.559998 513.619995 513.659973 513.679993 513.700012 513.710022 513.750000 513.809998 513.799988 513.789978 513.789978 513.809998 513.840027 513.830017 513.809998 513.809998 513.840027 513.880005 513.909973 513.919983 513.950012 513.989990 514.000000 514.030029 514.049988 514.080017 514.090027 514.099976 514.130005 514.169983 514.210022 514.239990 514.299988 514.380005 514.450012 514.549988 514.580017 515.049988 516.280029 516.859985 516.549988 516.070007 515.739990 515.500000 515.270020 515.210022 515.250000 515.479980 515.539978 515.109985 514.909973 514.900024 514.950012 515.070007 515.169983 515.260010 515.270020 515.260010 515.179993 515.140015 515.140015 515.150024 515.169983 515.190002 515.219971 515.250000 515.309998 515.349976 515.390015 515.440002 515.520020 515.580017 515.650024 515.710022 515.760010 515.809998 515.869995 515.909973 515.919983 515.929993 515.940002 516.010010 516.080017 516.159973 516.239990 516.280029 516.330017 516.349976 516.369995 516.390015 516.400024 516.409973 516.429993 516.450012 516.479980 516.489990 516.510010 516.479980 516.469971 516.469971 516.500000 516.530029 516.549988 513.429993 513.450012 513.400024 513.330017 513.309998 513.330017 513.340027 513.330017 513.340027 513.359985 513.340027 513.299988 513.289978 513.299988 513.299988 513.309998 513.320007 513.340027 513.369995 513.409973 513.460022 513.469971 513.469971 513.479980 513.510010 513.570007 513.659973 513.760010 513.859985 513.900024 513.929993 513.940002 513.909973 513.919983 513.929993 513.929993 513.940002 513.929993 513.940002 513.919983 513.900024 513.890015 513.890015 513.900024 513.890015 513.880005 513.849976 513.820007 513.789978 513.729980 513.669983 513.559998 513.440002 513.299988 513.239990 513.320007 513.400024 513.380005 513.419983 513.419983 513.479980 513.590027 513.659973 513.719971 513.679993 513.539978 513.409973 513.210022 513.150024 513.169983 513.169983 513.080017 513.099976 513.119995 513.130005 513.169983 513.159973 513.250000 513.229980 513.159973 513.099976 513.080017 513.080017 513.130005 513.099976 513.140015 513.190002 513.140015 513.070007 513.070007 513.119995 513.200012 513.299988 513.359985 513.400024 513.400024 513.409973 513.390015 513.359985 513.340027 513.369995 513.369995 513.320007 513.299988 513.280029 513.280029 513.299988 513.280029 513.289978 513.280029 513.320007 513.349976 513.380005 513.369995 513.299988 513.229980 513.289978 513.409973 513.400024 513.419983 513.429993 513.429993 513.429993 513.440002 513.440002 513.429993 513.450012 513.460022 513.489990 513.520020 513.549988 513.570007 513.599976 513.640015 513.659973 513.679993 513.700012 513.710022 513.729980 513.760010 513.770020 513.789978 513.809998 513.830017 513.859985 513.859985 513.849976 513.849976 513.859985 513.900024 513.929993 513.960022 513.979980 514.000000 514.000000 514.020020 514.059998 514.090027 514.109985 514.119995 514.150024 514.200012 514.250000 514.299988 514.340027 514.390015 514.510010 514.489990 514.239990 514.849976 516.309998 517.030029 517.109985 516.880005 516.440002 515.900024 515.489990 515.059998 515.169983 515.369995 515.400024 515.549988 515.409973 515.179993 515.159973 515.000000 515.109985 515.229980 515.289978 515.309998 515.280029 515.210022 515.159973 515.159973 515.169983 515.200012 515.239990 515.280029 515.330017 515.359985 515.390015 515.440002 515.500000 515.559998 515.640015 515.700012 515.760010 515.809998 515.859985 515.900024 515.929993 515.960022 516.000000 516.059998 516.099976 516.179993 516.260010 516.330017 516.380005 516.390015 516.409973 516.419983 516.440002 516.450012 516.440002 516.460022 516.460022 516.460022 516.489990 516.500000 516.469971 516.479980 516.500000 516.520020 516.549988 513.419983 513.460022 513.460022 513.380005 513.349976 513.369995 513.359985 513.349976 513.349976 513.369995 513.359985 513.330017 513.289978 513.289978 513.299988 513.299988 513.309998 513.330017 513.349976 513.390015 513.419983 513.440002 513.460022 513.469971 513.489990 513.500000 513.559998 513.609985 513.700012 513.809998 513.929993 514.010010 514.020020 514.020020 514.010010 513.989990 513.989990 513.979980 513.989990 513.979980 513.979980 513.969971 513.960022 513.960022 513.940002 513.909973 513.869995 513.840027 513.809998 513.760010 513.700012 513.539978 513.419983 513.280029 513.229980 513.320007 513.479980 513.520020 513.599976 513.700012 513.780029 513.820007 513.820007 513.830017 513.650024 513.609